47:00.511 $GPGGA,055129.00,5326.1729618,N,11109.6028200,W,4,12,0.9,300,M,46.9,M,,,
47:00.514 $GPVTG,0,T,034.4,M,0,N,0,K
47:00.617 $GPGGA,055129.00,5326.1729618,N,11109.6028200,W,4,12,0.9,300,M,46.9,M,,,
47:00.621 $GPVTG,0,T,034.4,M,0,N,0,K
47:00.723 $GPGGA,055129.00,5326.1729618,N,11109.6028200,W,4,12,0.9,300,M,46.9,M,,,
47:00.731 $GPVTG,0,T,034.4,M,0,N,0,K
47:00.834 $GPGGA,055129.00,5326.1729618,N,11109.6028200,W,4,12,0.9,300,M,46.9,M,,,
47:00.838 $GPVTG,0,T,034.4,M,0,N,0,K
47:00.941 $GPGGA,055129.00,5326.1729618,N,11109.6028200,W,4,12,0.9,300,M,46.9,M,,,
47:00.949 $GPVTG,0,T,034.4,M,0,N,0,K
47:01.052 $GPGGA,055129.00,5326.1729618,N,11109.6028200,W,4,12,0.9,300,M,46.9,M,,,
47:01.055 $GPVTG,0,T,034.4,M,0,N,0,K
47:01.158 $GPGGA,055129.00,5326.1729618,N,11109.6028200,W,4,12,0.9,300,M,46.9,M,,,
47:01.166 $GPVTG,0,T,034.4,M,0,N,0,K
47:01.268 $GPGGA,055129.00,5326.1729618,N,11109.6028200,W,4,12,0.9,300,M,46.9,M,,,
47:01.272 $GPVTG,0,T,034.4,M,0,N,0,K
47:01.375 $GPGGA,055129.00,5326.1729618,N,11109.6028200,W,4,12,0.9,300,M,46.9,M,,,
47:01.383 $GPVTG,0,T,034.4,M,0,N,0,K
47:01.485 $GPGGA,055129.00,5326.1729618,N,11109.6028200,W,4,12,0.9,300,M,46.9,M,,,
47:01.489 $GPVTG,0,T,034.4,M,0,N,0,K
47:01.592 $GPGGA,055129.00,5326.1729618,N,11109.6028200,W,4,12,0.9,300,M,46.9,M,,,
47:01.596 $GPVTG,0,T,034.4,M,0,N,0,K
47:01.703 $GPGGA,055129.00,5326.1729618,N,11109.6028200,W,4,12,0.9,300,M,46.9,M,,,
47:01.707 $GPVTG,0,T,034.4,M,0,N,0,K
47:01.809 $GPGGA,055129.00,5326.1729618,N,11109.6028200,W,4,12,0.9,300,M,46.9,M,,,
47:01.813 $GPVTG,0,T,034.4,M,0,N,0,K
47:01.920 $GPGGA,055129.00,5326.1729618,N,11109.6028200,W,4,12,0.9,300,M,46.9,M,,,
47:01.924 $GPVTG,0,T,034.4,M,0,N,0,K
47:02.025 $GPGGA,055129.00,5326.1729618,N,11109.6028200,W,4,12,0.9,300,M,46.9,M,,,
47:02.029 $GPVTG,0,T,034.4,M,0,N,0,K
47:02.136 $GPGGA,055129.00,5326.1729618,N,11109.6028200,W,4,12,0.9,300,M,46.9,M,,,
47:02.140 $GPVTG,0,T,034.4,M,0,N,0,K
47:02.243 $GPGGA,055129.00,5326.1729618,N,11109.6028200,W,4,12,0.9,300,M,46.9,M,,,
47:02.247 $GPVTG,0,T,034.4,M,0,N,0,K
47:02.350 $GPGGA,055129.00,5326.1729618,N,11109.6028200,W,4,12,0.9,300,M,46.9,M,,,
47:02.358 $GPVTG,0,T,034.4,M,0,N,0,K
47:02.460 $GPGGA,055129.00,5326.1729618,N,11109.6028200,W,4,12,0.9,300,M,46.9,M,,,
47:02.464 $GPVTG,0,T,034.4,M,0,N,0,K
47:02.566 $GPGGA,055129.00,5326.1729618,N,11109.6028200,W,4,12,0.9,300,M,46.9,M,,,
47:02.574 $GPVTG,0,T,034.4,M,0,N,0,K
47:02.677 $GPGGA,055129.00,5326.1729618,N,11109.6028200,W,4,12,0.9,300,M,46.9,M,,,
47:02.681 $GPVTG,0,T,034.4,M,0,N,0,K
47:02.783 $GPGGA,055129.00,5326.1729618,N,11109.6028200,W,4,12,0.9,300,M,46.9,M,,,
47:02.792 $GPVTG,0,T,034.4,M,0,N,0,K
47:02.894 $GPGGA,055129.00,5326.1729618,N,11109.6028200,W,4,12,0.9,300,M,46.9,M,,,
47:02.898 $GPVTG,0,T,034.4,M,0,N,0,K
47:03.000 $GPGGA,055129.00,5326.1729618,N,11109.6028200,W,4,12,0.9,300,M,46.9,M,,,
47:03.009 $GPVTG,0,T,034.4,M,0,N,0,K
47:03.111 $GPGGA,055129.00,5326.1729618,N,11109.6028200,W,4,12,0.9,300,M,46.9,M,,,
47:03.115 $GPVTG,0,T,034.4,M,0,N,0,K
47:03.217 $GPGGA,055129.00,5326.1729618,N,11109.6028200,W,4,12,0.9,300,M,46.9,M,,,
47:03.222 $GPVTG,0,T,034.4,M,0,N,0,K
47:03.329 $GPGGA,055129.00,5326.1729618,N,11109.6028200,W,4,12,0.9,300,M,46.9,M,,,
47:03.333 $GPVTG,0,T,034.4,M,0,N,0,K
47:03.435 $GPGGA,055129.00,5326.1729618,N,11109.6028200,W,4,12,0.9,300,M,46.9,M,,,
47:03.439 $GPVTG,0,T,034.4,M,0,N,0,K
47:03.545 $GPGGA,055129.00,5326.1729618,N,11109.6028200,W,4,12,0.9,300,M,46.9,M,,,
47:03.549 $GPVTG,0,T,034.4,M,0,N,0,K
47:03.652 $GPGGA,055129.00,5326.1729618,N,11109.6028200,W,4,12,0.9,300,M,46.9,M,,,
47:03.656 $GPVTG,0,T,034.4,M,0,N,0,K
47:03.758 $GPGGA,055129.00,5326.1729618,N,11109.6028200,W,4,12,0.9,300,M,46.9,M,,,
47:03.766 $GPVTG,0,T,034.4,M,0,N,0,K
47:03.869 $GPGGA,055129.00,5326.1729618,N,11109.6028200,W,4,12,0.9,300,M,46.9,M,,,
47:03.873 $GPVTG,0,T,034.4,M,0,N,0,K
47:03.975 $GPGGA,055129.00,5326.1729618,N,11109.6028200,W,4,12,0.9,300,M,46.9,M,,,
47:03.984 $GPVTG,0,T,034.4,M,0,N,0,K
47:04.085 $GPGGA,055129.00,5326.1729618,N,11109.6028200,W,4,12,0.9,300,M,46.9,M,,,
47:04.090 $GPVTG,0,T,034.4,M,0,N,0,K
47:04.192 $GPGGA,055129.00,5326.1729618,N,11109.6028200,W,4,12,0.9,300,M,46.9,M,,,
47:04.201 $GPVTG,0,T,034.4,M,0,N,0,K
47:04.304 $GPGGA,055129.00,5326.1729618,N,11109.6028200,W,4,12,0.9,300,M,46.9,M,,,
47:04.308 $GPVTG,0,T,034.4,M,0,N,0,K
47:04.409 $GPGGA,055129.00,5326.1729618,N,11109.6028200,W,4,12,0.9,300,M,46.9,M,,,
47:04.417 $GPVTG,0,T,034.4,M,0,N,0,K
47:04.520 $GPGGA,055129.00,5326.1729618,N,11109.6028200,W,4,12,0.9,300,M,46.9,M,,,
47:04.524 $GPVTG,0,T,034.4,M,0,N,0,K
47:04.627 $GPGGA,055129.00,5326.1729618,N,11109.6028200,W,4,12,0.9,300,M,46.9,M,,,
47:04.631 $GPVTG,0,T,034.4,M,0,N,0,K
47:04.737 $GPGGA,055129.00,5326.1729618,N,11109.6028200,W,4,12,0.9,300,M,46.9,M,,,
47:04.741 $GPVTG,0,T,034.4,M,0,N,0,K
47:04.843 $GPGGA,055129.00,5326.1729618,N,11109.6028200,W,4,12,0.9,300,M,46.9,M,,,
47:04.847 $GPVTG,0,T,034.4,M,0,N,0,K
47:04.955 $GPGGA,055129.00,5326.1729618,N,11109.6028200,W,4,12,0.9,300,M,46.9,M,,,
47:04.958 $GPVTG,0,T,034.4,M,0,N,0,K
47:05.061 $GPGGA,055129.00,5326.1729618,N,11109.6028200,W,4,12,0.9,300,M,46.9,M,,,
47:05.065 $GPVTG,0,T,034.4,M,0,N,0,K
47:05.172 $GPGGA,055129.00,5326.1729618,N,11109.6028200,W,4,12,0.9,300,M,46.9,M,,,
47:05.176 $GPVTG,0,T,034.4,M,0,N,0,K
47:05.278 $GPGGA,055129.00,5326.1729618,N,11109.6028200,W,4,12,0.9,300,M,46.9,M,,,
47:05.282 $GPVTG,0,T,034.4,M,0,N,0,K
47:05.385 $GPGGA,055129.00,5326.1729618,N,11109.6028200,W,4,12,0.9,300,M,46.9,M,,,
47:05.393 $GPVTG,0,T,034.4,M,0,N,0,K
47:05.495 $GPGGA,055129.00,5326.1729618,N,11109.6028200,W,4,12,0.9,300,M,46.9,M,,,
47:05.499 $GPVTG,0,T,034.4,M,0,N,0,K
47:05.602 $GPGGA,055129.00,5326.1729618,N,11109.6028200,W,4,12,0.9,300,M,46.9,M,,,
47:05.610 $GPVTG,0,T,034.4,M,0,N,0,K
47:05.712 $GPGGA,055129.00,5326.1729618,N,11109.6028200,W,4,12,0.9,300,M,46.9,M,,,
47:05.716 $GPVTG,0,T,034.4,M,0,N,0,K
47:05.818 $GPGGA,055129.00,5326.1729618,N,11109.6028200,W,4,12,0.9,300,M,46.9,M,,,
47:05.827 $GPVTG,0,T,034.4,M,0,N,0,K
47:05.929 $GPGGA,055129.00,5326.1729618,N,11109.6028200,W,4,12,0.9,300,M,46.9,M,,,
47:05.933 $GPVTG,0,T,034.4,M,0,N,0,K
47:06.036 $GPGGA,055129.00,5326.1729618,N,11109.6028200,W,4,12,0.9,300,M,46.9,M,,,
47:06.044 $GPVTG,0,T,034.4,M,0,N,0,K
47:06.146 $GPGGA,055129.00,5326.1729618,N,11109.6028200,W,4,12,0.9,300,M,46.9,M,,,
47:06.150 $GPVTG,0,T,034.4,M,0,N,0,K
47:06.253 $GPGGA,055129.00,5326.1729618,N,11109.6028200,W,4,12,0.9,300,M,46.9,M,,,
47:06.256 $GPVTG,0,T,034.4,M,0,N,0,K
47:06.363 $GPGGA,055129.00,5326.1729618,N,11109.6028200,W,4,12,0.9,300,M,46.9,M,,,
47:06.367 $GPVTG,0,T,034.4,M,0,N,0,K
47:06.470 $GPGGA,055129.00,5326.1729618,N,11109.6028200,W,4,12,0.9,300,M,46.9,M,,,
47:06.474 $GPVTG,0,T,034.4,M,0,N,0,K
47:06.581 $GPGGA,055129.00,5326.1729618,N,11109.6028200,W,4,12,0.9,300,M,46.9,M,,,
47:06.584 $GPVTG,0,T,034.4,M,0,N,0,K
47:06.687 $GPGGA,055129.00,5326.1729618,N,11109.6028200,W,4,12,0.9,300,M,46.9,M,,,
47:06.691 $GPVTG,0,T,034.4,M,0,N,0,K
47:06.793 $GPGGA,055129.00,5326.1729618,N,11109.6028200,W,4,12,0.9,300,M,46.9,M,,,
47:06.802 $GPVTG,0,T,034.4,M,0,N,0,K
47:06.904 $GPGGA,055129.00,5326.1729618,N,11109.6028200,W,4,12,0.9,300,M,46.9,M,,,
47:06.908 $GPVTG,0,T,034.4,M,0,N,0,K
47:07.010 $GPGGA,055129.00,5326.1729618,N,11109.6028200,W,4,12,0.9,300,M,46.9,M,,,
47:07.019 $GPVTG,0,T,034.4,M,0,N,0,K
47:07.121 $GPGGA,055129.00,5326.1729618,N,11109.6028200,W,4,12,0.9,300,M,46.9,M,,,
47:07.125 $GPVTG,0,T,034.4,M,0,N,0,K
47:07.227 $GPGGA,055129.00,5326.1729618,N,11109.6028200,W,4,12,0.9,300,M,46.9,M,,,
47:07.235 $GPVTG,0,T,034.4,M,0,N,0,K
47:07.338 $GPGGA,055129.00,5326.1729618,N,11109.6028200,W,4,12,0.9,300,M,46.9,M,,,
47:07.342 $GPVTG,0,T,034.4,M,0,N,0,K
47:07.445 $GPGGA,055129.00,5326.1729618,N,11109.6028200,W,4,12,0.9,300,M,46.9,M,,,
47:07.453 $GPVTG,0,T,034.4,M,0,N,0,K
47:07.555 $GPGGA,055129.00,5326.1729618,N,11109.6028200,W,4,12,0.9,300,M,46.9,M,,,
47:07.560 $GPVTG,0,T,034.4,M,0,N,0,K
47:07.662 $GPGGA,055129.00,5326.1729618,N,11109.6028200,W,4,12,0.9,300,M,46.9,M,,,
47:07.666 $GPVTG,0,T,034.4,M,0,N,0,K
47:07.772 $GPGGA,055129.00,5326.1729618,N,11109.6028200,W,4,12,0.9,300,M,46.9,M,,,
47:07.777 $GPVTG,0,T,034.4,M,0,N,0,K
47:07.879 $GPGGA,055129.00,5326.1729618,N,11109.6028200,W,4,12,0.9,300,M,46.9,M,,,
47:07.883 $GPVTG,0,T,034.4,M,0,N,0,K
47:07.989 $GPGGA,055129.00,5326.1729618,N,11109.6028200,W,4,12,0.9,300,M,46.9,M,,,
47:07.994 $GPVTG,0,T,034.4,M,0,N,0,K
47:08.096 $GPGGA,055129.00,5326.1729618,N,11109.6028200,W,4,12,0.9,300,M,46.9,M,,,
47:08.100 $GPVTG,0,T,034.4,M,0,N,0,K
47:08.203 $GPGGA,055129.00,5326.1729618,N,11109.6028200,W,4,12,0.9,300,M,46.9,M,,,
47:08.211 $GPVTG,0,T,034.4,M,0,N,0,K
47:08.313 $GPGGA,055129.00,5326.1729618,N,11109.6028200,W,4,12,0.9,300,M,46.9,M,,,
47:08.317 $GPVTG,0,T,034.4,M,0,N,0,K
47:08.420 $GPGGA,055129.00,5326.1729618,N,11109.6028200,W,4,12,0.9,300,M,46.9,M,,,
47:08.428 $GPVTG,0,T,034.4,M,0,N,0,K
47:08.530 $GPGGA,055129.00,5326.1729618,N,11109.6028200,W,4,12,0.9,300,M,46.9,M,,,
47:08.534 $GPVTG,0,T,034.4,M,0,N,0,K
47:08.637 $GPGGA,055129.00,5326.1729618,N,11109.6028200,W,4,12,0.9,300,M,46.9,M,,,
47:08.645 $GPVTG,0,T,034.4,M,0,N,0,K
47:08.747 $GPGGA,055129.00,5326.1729618,N,11109.6028200,W,4,12,0.9,300,M,46.9,M,,,
47:08.751 $GPVTG,0,T,034.4,M,0,N,0,K
47:08.854 $GPGGA,055129.00,5326.1729618,N,11109.6028200,W,4,12,0.9,300,M,46.9,M,,,
47:08.862 $GPVTG,0,T,034.4,M,0,N,0,K
47:08.964 $GPGGA,055129.00,5326.1729618,N,11109.6028200,W,4,12,0.9,300,M,46.9,M,,,
47:08.968 $GPVTG,0,T,034.4,M,0,N,0,K
47:09.071 $GPGGA,055129.00,5326.1729618,N,11109.6028200,W,4,12,0.9,300,M,46.9,M,,,
47:09.075 $GPVTG,0,T,034.4,M,0,N,0,K
47:09.182 $GPGGA,055129.00,5326.1729618,N,11109.6028200,W,4,12,0.9,300,M,46.9,M,,,
47:09.185 $GPVTG,0,T,034.4,M,0,N,0,K
47:09.288 $GPGGA,055129.00,5326.1729618,N,11109.6028200,W,4,12,0.9,300,M,46.9,M,,,
47:09.292 $GPVTG,0,T,034.4,M,0,N,0,K
47:09.398 $GPGGA,055129.00,5326.1729618,N,11109.6028200,W,4,12,0.9,300,M,46.9,M,,,
47:09.403 $GPVTG,0,T,034.4,M,0,N,0,K
47:09.505 $GPGGA,055129.00,5326.1729618,N,11109.6028200,W,4,12,0.9,300,M,46.9,M,,,
47:09.509 $GPVTG,0,T,034.4,M,0,N,0,K
47:09.616 $GPGGA,055129.00,5326.1729618,N,11109.6028200,W,4,12,0.9,300,M,46.9,M,,,
47:09.619 $GPVTG,0,T,034.4,M,0,N,0,K
47:09.722 $GPGGA,055129.00,5326.1729618,N,11109.6028200,W,4,12,0.9,300,M,46.9,M,,,
47:09.726 $GPVTG,0,T,034.4,M,0,N,0,K
47:09.828 $GPGGA,055129.00,5326.1729618,N,11109.6028200,W,4,12,0.9,300,M,46.9,M,,,
47:09.836 $GPVTG,0,T,034.4,M,0,N,0,K
47:09.939 $GPGGA,055129.00,5326.1729618,N,11109.6028200,W,4,12,0.9,300,M,46.9,M,,,
47:09.943 $GPVTG,0,T,034.4,M,0,N,0,K
47:10.046 $GPGGA,055129.00,5326.1729618,N,11109.6028200,W,4,12,0.9,300,M,46.9,M,,,
47:10.054 $GPVTG,0,T,034.4,M,0,N,0,K
47:10.156 $GPGGA,055129.00,5326.1729618,N,11109.6028200,W,4,12,0.9,300,M,46.9,M,,,
47:10.160 $GPVTG,0,T,034.4,M,0,N,0,K
47:10.263 $GPGGA,055129.00,5326.1729618,N,11109.6028200,W,4,12,0.9,300,M,46.9,M,,,
47:10.271 $GPVTG,0,T,034.4,M,0,N,0,K
47:10.373 $GPGGA,055129.00,5326.1729618,N,11109.6028200,W,4,12,0.9,300,M,46.9,M,,,
47:10.377 $GPVTG,0,T,034.4,M,0,N,0,K
47:10.480 $GPGGA,055129.00,5326.1729618,N,11109.6028200,W,4,12,0.9,300,M,46.9,M,,,
47:10.488 $GPVTG,0,T,034.4,M,0,N,0,K
47:10.590 $GPGGA,055129.00,5326.1729618,N,11109.6028200,W,4,12,0.9,300,M,46.9,M,,,
47:10.594 $GPVTG,0,T,034.4,M,0,N,0,K
47:10.696 $GPGGA,055129.00,5326.1729618,N,11109.6028200,W,4,12,0.9,300,M,46.9,M,,,
47:10.701 $GPVTG,0,T,034.4,M,0,N,0,K
47:10.808 $GPGGA,055129.00,5326.1729618,N,11109.6028200,W,4,12,0.9,300,M,46.9,M,,,
47:10.811 $GPVTG,0,T,034.4,M,0,N,0,K
47:10.913 $GPGGA,055129.00,5326.1729618,N,11109.6028200,W,4,12,0.9,300,M,46.9,M,,,
47:10.918 $GPVTG,0,T,034.4,M,0,N,0,K
47:11.025 $GPGGA,055129.00,5326.1729618,N,11109.6028200,W,4,12,0.9,300,M,46.9,M,,,
47:11.028 $GPVTG,0,T,034.4,M,0,N,0,K
47:11.131 $GPGGA,055129.00,5326.1729618,N,11109.6028200,W,4,12,0.9,300,M,46.9,M,,,
47:11.135 $GPVTG,0,T,034.4,M,0,N,0,K
47:11.238 $GPGGA,055129.00,5326.1729618,N,11109.6028200,W,4,12,0.9,300,M,46.9,M,,,
47:11.246 $GPVTG,0,T,034.4,M,0,N,0,K
47:11.348 $GPGGA,055129.00,5326.1729618,N,11109.6028200,W,4,12,0.9,300,M,46.9,M,,,
47:11.352 $GPVTG,0,T,034.4,M,0,N,0,K
47:11.455 $GPGGA,055129.00,5326.1729618,N,11109.6028200,W,4,12,0.9,300,M,46.9,M,,,
47:11.463 $GPVTG,0,T,034.4,M,0,N,0,K
47:11.564 $GPGGA,055129.00,5326.1729618,N,11109.6028200,W,4,12,0.9,300,M,46.9,M,,,
47:11.569 $GPVTG,0,T,034.4,M,0,N,0,K
47:11.672 $GPGGA,055129.00,5326.1729618,N,11109.6028200,W,4,12,0.9,300,M,46.9,M,,,
47:11.680 $GPVTG,0,T,034.4,M,0,N,0,K
47:11.782 $GPGGA,055129.00,5326.1729618,N,11109.6028200,W,4,12,0.9,300,M,46.9,M,,,
47:11.786 $GPVTG,0,T,034.4,M,0,N,0,K
47:11.889 $GPGGA,055129.00,5326.1729618,N,11109.6028200,W,4,12,0.9,300,M,46.9,M,,,
47:11.897 $GPVTG,0,T,034.4,M,0,N,0,K
47:11.999 $GPGGA,055129.00,5326.1729618,N,11109.6028200,W,4,12,0.9,300,M,46.9,M,,,
47:12.003 $GPVTG,0,T,034.4,M,0,N,0,K
47:12.106 $GPGGA,055129.00,5326.1729618,N,11109.6028200,W,4,12,0.9,300,M,46.9,M,,,
47:12.110 $GPVTG,0,T,034.4,M,0,N,0,K
47:12.217 $GPGGA,055129.00,5326.1729618,N,11109.6028200,W,4,12,0.9,300,M,46.9,M,,,
47:12.220 $GPVTG,0,T,034.4,M,0,N,0,K
47:12.323 $GPGGA,055129.00,5326.1729618,N,11109.6028200,W,4,12,0.9,300,M,46.9,M,,,
47:12.327 $GPVTG,0,T,034.4,M,0,N,0,K
47:12.434 $GPGGA,055129.00,5326.1729618,N,11109.6028200,W,4,12,0.9,300,M,46.9,M,,,
47:12.438 $GPVTG,0,T,034.4,M,0,N,0,K
47:12.539 $GPGGA,055129.00,5326.1729618,N,11109.6028200,W,4,12,0.9,300,M,46.9,M,,,
47:12.544 $GPVTG,0,T,034.4,M,0,N,0,K
47:12.646 $GPGGA,055129.00,5326.1729618,N,11109.6028200,W,4,12,0.9,300,M,46.9,M,,,
47:12.655 $GPVTG,0,T,034.4,M,0,N,0,K
47:12.757 $GPGGA,055129.00,5326.1729618,N,11109.6028200,W,4,12,0.9,300,M,46.9,M,,,
47:12.761 $GPVTG,0,T,034.4,M,0,N,0,K
47:12.864 $GPGGA,055129.00,5326.1729618,N,11109.6028200,W,4,12,0.9,300,M,46.9,M,,,
47:12.872 $GPVTG,0,T,034.4,M,0,N,0,K
47:12.974 $GPGGA,055129.00,5326.1729618,N,11109.6028200,W,4,12,0.9,300,M,46.9,M,,,
47:12.978 $GPVTG,0,T,034.4,M,0,N,0,K
47:13.081 $GPGGA,055129.00,5326.1729618,N,11109.6028200,W,4,12,0.9,300,M,46.9,M,,,
47:13.089 $GPVTG,0,T,034.4,M,0,N,0,K
47:13.191 $GPGGA,055129.00,5326.1729618,N,11109.6028200,W,4,12,0.9,300,M,46.9,M,,,
47:13.195 $GPVTG,0,T,034.4,M,0,N,0,K
47:13.298 $GPGGA,055129.00,5326.1729618,N,11109.6028200,W,4,12,0.9,300,M,46.9,M,,,
47:13.306 $GPVTG,0,T,034.4,M,0,N,0,K
47:13.408 $GPGGA,055129.00,5326.1729618,N,11109.6028200,W,4,12,0.9,300,M,46.9,M,,,
47:13.412 $GPVTG,0,T,034.4,M,0,N,0,K
47:13.515 $GPGGA,055129.00,5326.1729618,N,11109.6028200,W,4,12,0.9,300,M,46.9,M,,,
47:13.518 $GPVTG,0,T,034.4,M,0,N,0,K
47:13.625 $GPGGA,055129.00,5326.1729618,N,11109.6028200,W,4,12,0.9,300,M,46.9,M,,,
47:13.629 $GPVTG,0,T,034.4,M,0,N,0,K
47:13.732 $GPGGA,055129.00,5326.1729618,N,11109.6028200,W,4,12,0.9,300,M,46.9,M,,,
47:13.736 $GPVTG,0,T,034.4,M,0,N,0,K
47:13.842 $GPGGA,055129.00,5326.1729618,N,11109.6028200,W,4,12,0.9,300,M,46.9,M,,,
47:13.846 $GPVTG,0,T,034.4,M,0,N,0,K
47:13.948 $GPGGA,055129.00,5326.1729618,N,11109.6028200,W,4,12,0.9,300,M,46.9,M,,,
47:13.953 $GPVTG,0,T,034.4,M,0,N,0,K
47:14.060 $GPGGA,055129.00,5326.1729618,N,11109.6028200,W,4,12,0.9,300,M,46.9,M,,,
47:14.063 $GPVTG,0,T,034.4,M,0,N,0,K
47:14.166 $GPGGA,055129.00,5326.1729618,N,11109.6028200,W,4,12,0.9,300,M,46.9,M,,,
47:14.170 $GPVTG,0,T,034.4,M,0,N,0,K
47:14.273 $GPGGA,055129.00,5326.1729618,N,11109.6028200,W,4,12,0.9,300,M,46.9,M,,,
47:14.280 $GPVTG,0,T,034.4,M,0,N,0,K
47:14.383 $GPGGA,055129.00,5326.1729618,N,11109.6028200,W,4,12,0.9,300,M,46.9,M,,,
47:14.387 $GPVTG,0,T,034.4,M,0,N,0,K
47:14.490 $GPGGA,055129.00,5326.1729618,N,11109.6028200,W,4,12,0.9,300,M,46.9,M,,,
47:14.497 $GPVTG,0,T,034.4,M,0,N,0,K
47:14.600 $GPGGA,055129.00,5326.1729618,N,11109.6028200,W,4,12,0.9,300,M,46.9,M,,,
47:14.604 $GPVTG,0,T,034.4,M,0,N,0,K
47:14.707 $GPGGA,055129.00,5326.1729618,N,11109.6028200,W,4,12,0.9,300,M,46.9,M,,,
47:14.715 $GPVTG,0,T,034.4,M,0,N,0,K
47:14.817 $GPGGA,055129.00,5326.1729618,N,11109.6028200,W,4,12,0.9,300,M,46.9,M,,,
47:14.821 $GPVTG,0,T,034.4,M,0,N,0,K
47:14.924 $GPGGA,055129.00,5326.1729618,N,11109.6028200,W,4,12,0.9,300,M,46.9,M,,,
47:14.931 $GPVTG,0,T,034.4,M,0,N,0,K
47:15.035 $GPGGA,055129.00,5326.1729618,N,11109.6028200,W,4,12,0.9,300,M,46.9,M,,,
47:15.038 $GPVTG,0,T,034.4,M,0,N,0,K
47:15.141 $GPGGA,055129.00,5326.1729618,N,11109.6028200,W,4,12,0.9,300,M,46.9,M,,,
47:15.145 $GPVTG,0,T,034.4,M,0,N,0,K
47:15.252 $GPGGA,055129.00,5326.1729618,N,11109.6028200,W,4,12,0.9,300,M,46.9,M,,,
47:15.255 $GPVTG,0,T,034.4,M,0,N,0,K
47:15.358 $GPGGA,055129.00,5326.1729618,N,11109.6028200,W,4,12,0.9,300,M,46.9,M,,,
47:15.362 $GPVTG,0,T,034.4,M,0,N,0,K
47:15.469 $GPGGA,055129.00,5326.1729618,N,11109.6028200,W,4,12,0.9,300,M,46.9,M,,,
47:15.473 $GPVTG,0,T,034.4,M,0,N,0,K
47:15.575 $GPGGA,055129.00,5326.1729618,N,11109.6028200,W,4,12,0.9,300,M,46.9,M,,,
47:15.579 $GPVTG,0,T,034.4,M,0,N,0,K
47:15.681 $GPGGA,055129.00,5326.1729618,N,11109.6028200,W,4,12,0.9,300,M,46.9,M,,,
47:15.690 $GPVTG,0,T,034.4,M,0,N,0,K
47:15.792 $GPGGA,055129.00,5326.1729618,N,11109.6028200,W,4,12,0.9,300,M,46.9,M,,,
47:15.796 $GPVTG,0,T,034.4,M,0,N,0,K
47:15.898 $GPGGA,055129.00,5326.1729618,N,11109.6028200,W,4,12,0.9,300,M,46.9,M,,,
47:15.907 $GPVTG,0,T,034.4,M,0,N,0,K
47:16.008 $GPGGA,055129.00,5326.1729618,N,11109.6028200,W,4,12,0.9,300,M,46.9,M,,,
47:16.012 $GPVTG,0,T,034.4,M,0,N,0,K
47:16.115 $GPGGA,055129.00,5326.1729618,N,11109.6028200,W,4,12,0.9,300,M,46.9,M,,,
47:16.124 $GPVTG,0,T,034.4,M,0,N,0,K
47:16.226 $GPGGA,055129.00,5326.1729618,N,11109.6028200,W,4,12,0.9,300,M,46.9,M,,,
47:16.230 $GPVTG,0,T,034.4,M,0,N,0,K
47:16.333 $GPGGA,055129.00,5326.1729618,N,11109.6028200,W,4,12,0.9,300,M,46.9,M,,,
47:16.341 $GPVTG,0,T,034.4,M,0,N,0,K
47:16.443 $GPGGA,055129.00,5326.1729618,N,11109.6028200,W,4,12,0.9,300,M,46.9,M,,,
47:16.447 $GPVTG,0,T,034.4,M,0,N,0,K
47:16.550 $GPGGA,055129.00,5326.1729618,N,11109.6028200,W,4,12,0.9,300,M,46.9,M,,,
47:16.554 $GPVTG,0,T,034.4,M,0,N,0,K
47:16.660 $GPGGA,055129.00,5326.1729618,N,11109.6028200,W,4,12,0.9,300,M,46.9,M,,,
47:16.665 $GPVTG,0,T,034.4,M,0,N,0,K
47:16.767 $GPGGA,055129.00,5326.1729618,N,11109.6028200,W,4,12,0.9,300,M,46.9,M,,,
47:16.771 $GPVTG,0,T,034.4,M,0,N,0,K
47:16.878 $GPGGA,055129.00,5326.1729618,N,11109.6028200,W,4,12,0.9,300,M,46.9,M,,,
47:16.882 $GPVTG,0,T,034.4,M,0,N,0,K
47:16.983 $GPGGA,055129.00,5326.1729618,N,11109.6028200,W,4,12,0.9,300,M,46.9,M,,,
47:16.988 $GPVTG,0,T,034.4,M,0,N,0,K
47:17.094 $GPGGA,055129.00,5326.1729618,N,11109.6028200,W,4,12,0.9,300,M,46.9,M,,,
47:17.098 $GPVTG,0,T,034.4,M,0,N,0,K
47:17.200 $GPGGA,055129.00,5326.1729618,N,11109.6028200,W,4,12,0.9,300,M,46.9,M,,,
47:17.205 $GPVTG,0,T,034.4,M,0,N,0,K
47:17.308 $GPGGA,055129.00,5326.1729618,N,11109.6028200,W,4,12,0.9,300,M,46.9,M,,,
47:17.316 $GPVTG,0,T,034.4,M,0,N,0,K
47:17.418 $GPGGA,055129.00,5326.1729618,N,11109.6028200,W,4,12,0.9,300,M,46.9,M,,,
47:17.422 $GPVTG,0,T,034.4,M,0,N,0,K
47:17.524 $GPGGA,055129.00,5326.1729618,N,11109.6028200,W,4,12,0.9,300,M,46.9,M,,,
47:17.533 $GPVTG,0,T,034.4,M,0,N,0,K
47:17.635 $GPGGA,055129.00,5326.1729618,N,11109.6028200,W,4,12,0.9,300,M,46.9,M,,,
47:17.639 $GPVTG,0,T,034.4,M,0,N,0,K
47:17.742 $GPGGA,055129.00,5326.1729618,N,11109.6028200,W,4,12,0.9,300,M,46.9,M,,,
47:17.750 $GPVTG,0,T,034.4,M,0,N,0,K
47:17.852 $GPGGA,055129.00,5326.1729618,N,11109.6028200,W,4,12,0.9,300,M,46.9,M,,,
47:17.856 $GPVTG,0,T,034.4,M,0,N,0,K
47:17.959 $GPGGA,055129.00,5326.1729618,N,11109.6028200,W,4,12,0.9,300,M,46.9,M,,,
47:17.963 $GPVTG,0,T,034.4,M,0,N,0,K
47:18.069 $GPGGA,055129.00,5326.1729618,N,11109.6028200,W,4,12,0.9,300,M,46.9,M,,,
47:18.073 $GPVTG,0,T,034.4,M,0,N,0,K
47:18.176 $GPGGA,055129.00,5326.1729618,N,11109.6028200,W,4,12,0.9,300,M,46.9,M,,,
47:18.180 $GPVTG,0,T,034.4,M,0,N,0,K
47:18.286 $GPGGA,055129.00,5326.1729618,N,11109.6028200,W,4,12,0.9,300,M,46.9,M,,,
47:18.290 $GPVTG,0,T,034.4,M,0,N,0,K
47:18.393 $GPGGA,055129.00,5326.1729618,N,11109.6028200,W,4,12,0.9,300,M,46.9,M,,,
47:18.397 $GPVTG,0,T,034.4,M,0,N,0,K
47:18.504 $GPGGA,055129.00,5326.1729618,N,11109.6028200,W,4,12,0.9,300,M,46.9,M,,,
47:18.508 $GPVTG,0,T,034.4,M,0,N,0,K
47:18.609 $GPGGA,055129.00,5326.1729618,N,11109.6028200,W,4,12,0.9,300,M,46.9,M,,,
47:18.613 $GPVTG,0,T,034.4,M,0,N,0,K
47:18.717 $GPGGA,055129.00,5326.1729618,N,11109.6028200,W,4,12,0.9,300,M,46.9,M,,,
47:18.724 $GPVTG,0,T,034.4,M,0,N,0,K
47:18.827 $GPGGA,055129.00,5326.1729618,N,11109.6028200,W,4,12,0.9,300,M,46.9,M,,,
47:18.831 $GPVTG,0,T,034.4,M,0,N,0,K
47:18.934 $GPGGA,055129.00,5326.1729618,N,11109.6028200,W,4,12,0.9,300,M,46.9,M,,,
47:18.942 $GPVTG,0,T,034.4,M,0,N,0,K
47:19.044 $GPGGA,055129.00,5326.1729618,N,11109.6028200,W,4,12,0.9,300,M,46.9,M,,,
47:19.047 $GPVTG,0,T,034.4,M,0,N,0,K
47:19.151 $GPGGA,055129.00,5326.1729618,N,11109.6028200,W,4,12,0.9,300,M,46.9,M,,,
47:19.158 $GPVTG,0,T,034.4,M,0,N,0,K
47:19.261 $GPGGA,055129.00,5326.1729618,N,11109.6028200,W,4,12,0.9,300,M,46.9,M,,,
47:19.265 $GPVTG,0,T,034.4,M,0,N,0,K
47:19.368 $GPGGA,055129.00,5326.1729618,N,11109.6028200,W,4,12,0.9,300,M,46.9,M,,,
47:19.376 $GPVTG,0,T,034.4,M,0,N,0,K
47:19.478 $GPGGA,055129.00,5326.1729618,N,11109.6028200,W,4,12,0.9,300,M,46.9,M,,,
47:19.482 $GPVTG,0,T,034.4,M,0,N,0,K
47:19.584 $GPGGA,055129.00,5326.1729618,N,11109.6028200,W,4,12,0.9,300,M,46.9,M,,,
47:19.588 $GPVTG,0,T,034.4,M,0,N,0,K
47:19.695 $GPGGA,055129.00,5326.1729618,N,11109.6028200,W,4,12,0.9,300,M,46.9,M,,,
47:19.699 $GPVTG,0,T,034.4,M,0,N,0,K
47:19.801 $GPGGA,055129.00,5326.1729618,N,11109.6028200,W,4,12,0.9,300,M,46.9,M,,,
47:19.805 $GPVTG,0,T,034.4,M,0,N,0,K
47:19.912 $GPGGA,055129.00,5326.1729618,N,11109.6028200,W,4,12,0.9,300,M,46.9,M,,,
47:19.916 $GPVTG,0,T,034.4,M,0,N,0,K
47:20.019 $GPGGA,055129.00,5326.1729618,N,11109.6028200,W,4,12,0.9,300,M,46.9,M,,,
47:20.023 $GPVTG,0,T,034.4,M,0,N,0,K
47:20.125 $GPGGA,055129.00,5326.1729618,N,11109.6028200,W,4,12,0.9,300,M,46.9,M,,,
47:20.134 $GPVTG,0,T,034.4,M,0,N,0,K
47:20.236 $GPGGA,055129.00,5326.1729618,N,11109.6028200,W,4,12,0.9,300,M,46.9,M,,,
47:20.240 $GPVTG,0,T,034.4,M,0,N,0,K
47:20.343 $GPGGA,055129.00,5326.1729618,N,11109.6028200,W,4,12,0.9,300,M,46.9,M,,,
47:20.351 $GPVTG,0,T,034.4,M,0,N,0,K
47:20.454 $GPGGA,055129.00,5326.1729618,N,11109.6028200,W,4,12,0.9,300,M,46.9,M,,,
47:20.457 $GPVTG,0,T,034.4,M,0,N,0,K
47:20.560 $GPGGA,055129.00,5326.1729618,N,11109.6028200,W,4,12,0.9,300,M,46.9,M,,,
47:20.568 $GPVTG,0,T,034.4,M,0,N,0,K
47:20.670 $GPGGA,055129.00,5326.1729618,N,11109.6028200,W,4,12,0.9,300,M,46.9,M,,,
47:20.674 $GPVTG,0,T,034.4,M,0,N,0,K
47:20.777 $GPGGA,055129.00,5326.1729618,N,11109.6028200,W,4,12,0.9,300,M,46.9,M,,,
47:20.784 $GPVTG,0,T,034.4,M,0,N,0,K
47:20.887 $GPGGA,055129.00,5326.1729618,N,11109.6028200,W,4,12,0.9,300,M,46.9,M,,,
47:20.891 $GPVTG,0,T,034.4,M,0,N,0,K
47:20.994 $GPGGA,055129.00,5326.1729618,N,11109.6028200,W,4,12,0.9,300,M,46.9,M,,,
47:20.997 $GPVTG,0,T,034.4,M,0,N,0,K
47:21.104 $GPGGA,055129.00,5326.1729618,N,11109.6028200,W,4,12,0.9,300,M,46.9,M,,,
47:21.108 $GPVTG,0,T,034.4,M,0,N,0,K
47:21.211 $GPGGA,055129.00,5326.1729618,N,11109.6028200,W,4,12,0.9,300,M,46.9,M,,,
47:21.215 $GPVTG,0,T,034.4,M,0,N,0,K
47:21.321 $GPGGA,055129.00,5326.1729618,N,11109.6028200,W,4,12,0.9,300,M,46.9,M,,,
47:21.325 $GPVTG,0,T,034.4,M,0,N,0,K
47:21.428 $GPGGA,055129.00,5326.1729618,N,11109.6028200,W,4,12,0.9,300,M,46.9,M,,,
47:21.432 $GPVTG,0,T,034.4,M,0,N,0,K
47:21.538 $GPGGA,055129.00,5326.1729618,N,11109.6028200,W,4,12,0.9,300,M,46.9,M,,,
47:21.542 $GPVTG,0,T,034.4,M,0,N,0,K
47:21.645 $GPGGA,055129.00,5326.1729618,N,11109.6028200,W,4,12,0.9,300,M,46.9,M,,,
47:21.649 $GPVTG,0,T,034.4,M,0,N,0,K
47:21.752 $GPGGA,055129.00,5326.1729618,N,11109.6028200,W,4,12,0.9,300,M,46.9,M,,,
47:21.760 $GPVTG,0,T,034.4,M,0,N,0,K
47:21.862 $GPGGA,055129.00,5326.1729618,N,11109.6028200,W,4,12,0.9,300,M,46.9,M,,,
47:21.865 $GPVTG,0,T,034.4,M,0,N,0,K
47:21.969 $GPGGA,055129.00,5326.1729618,N,11109.6028200,W,4,12,0.9,300,M,46.9,M,,,
47:21.977 $GPVTG,0,T,034.4,M,0,N,0,K
47:22.079 $GPGGA,055129.00,5326.1729618,N,11109.6028200,W,4,12,0.9,300,M,46.9,M,,,
47:22.083 $GPVTG,0,T,034.4,M,0,N,0,K
47:22.186 $GPGGA,055129.00,5326.1729618,N,11109.6028200,W,4,12,0.9,300,M,46.9,M,,,
47:22.194 $GPVTG,0,T,034.4,M,0,N,0,K
47:22.296 $GPGGA,055129.00,5326.1729618,N,11109.6028200,W,4,12,0.9,300,M,46.9,M,,,
47:22.300 $GPVTG,0,T,034.4,M,0,N,0,K
47:22.402 $GPGGA,055129.00,5326.1729618,N,11109.6028200,W,4,12,0.9,300,M,46.9,M,,,
47:22.410 $GPVTG,0,T,034.4,M,0,N,0,K
47:22.513 $GPGGA,055129.00,5326.1729618,N,11109.6028200,W,4,12,0.9,300,M,46.9,M,,,
47:22.517 $GPVTG,0,T,034.4,M,0,N,0,K
47:22.620 $GPGGA,055129.00,5326.1729618,N,11109.6028200,W,4,12,0.9,300,M,46.9,M,,,
47:22.624 $GPVTG,0,T,034.4,M,0,N,0,K
47:22.730 $GPGGA,055129.00,5326.1729618,N,11109.6028200,W,4,12,0.9,300,M,46.9,M,,,
47:22.734 $GPVTG,0,T,034.4,M,0,N,0,K
47:22.837 $GPGGA,055129.00,5326.1729618,N,11109.6028200,W,4,12,0.9,300,M,46.9,M,,,
47:22.841 $GPVTG,0,T,034.4,M,0,N,0,K
47:22.947 $GPGGA,055129.00,5326.1729618,N,11109.6028200,W,4,12,0.9,300,M,46.9,M,,,
47:22.951 $GPVTG,0,T,034.4,M,0,N,0,K
47:23.055 $GPGGA,055129.00,5326.1729618,N,11109.6028200,W,4,12,0.9,300,M,46.9,M,,,
47:23.058 $GPVTG,0,T,034.4,M,0,N,0,K
47:23.161 $GPGGA,055129.00,5326.1729618,N,11109.6028200,W,4,12,0.9,300,M,46.9,M,,,
47:23.168 $GPVTG,0,T,034.4,M,0,N,0,K
47:23.271 $GPGGA,055129.00,5326.1729618,N,11109.6028200,W,4,12,0.9,300,M,46.9,M,,,
47:23.275 $GPVTG,0,T,034.4,M,0,N,0,K
47:23.378 $GPGGA,055129.00,5326.1729618,N,11109.6028200,W,4,12,0.9,300,M,46.9,M,,,
47:23.385 $GPVTG,0,T,034.4,M,0,N,0,K
47:23.488 $GPGGA,055129.00,5326.1729618,N,11109.6028200,W,4,12,0.9,300,M,46.9,M,,,
47:23.492 $GPVTG,0,T,034.4,M,0,N,0,K
47:23.595 $GPGGA,055129.00,5326.1729618,N,11109.6028200,W,4,12,0.9,300,M,46.9,M,,,
47:23.603 $GPVTG,0,T,034.4,M,0,N,0,K
47:23.704 $GPGGA,055129.00,5326.1729618,N,11109.6028200,W,4,12,0.9,300,M,46.9,M,,,
47:23.709 $GPVTG,0,T,034.4,M,0,N,0,K
47:23.812 $GPGGA,055129.00,5326.1729618,N,11109.6028200,W,4,12,0.9,300,M,46.9,M,,,
47:23.819 $GPVTG,0,T,034.4,M,0,N,0,K
47:23.922 $GPGGA,055129.00,5326.1729618,N,11109.6028200,W,4,12,0.9,300,M,46.9,M,,,
47:23.926 $GPVTG,0,T,034.4,M,0,N,0,K
47:24.029 $GPGGA,055129.00,5326.1729618,N,11109.6028200,W,4,12,0.9,300,M,46.9,M,,,
47:24.033 $GPVTG,0,T,034.4,M,0,N,0,K
47:24.139 $GPGGA,055129.00,5326.1729618,N,11109.6028200,W,4,12,0.9,300,M,46.9,M,,,
47:24.143 $GPVTG,0,T,034.4,M,0,N,0,K
47:24.246 $GPGGA,055129.00,5326.1729618,N,11109.6028200,W,4,12,0.9,300,M,46.9,M,,,
47:24.250 $GPVTG,0,T,034.4,M,0,N,0,K
47:24.356 $GPGGA,055129.00,5326.1729618,N,11109.6028200,W,4,12,0.9,300,M,46.9,M,,,
47:24.360 $GPVTG,0,T,034.4,M,0,N,0,K
47:24.463 $GPGGA,055129.00,5326.1729618,N,11109.6028200,W,4,12,0.9,300,M,46.9,M,,,
47:24.467 $GPVTG,0,T,034.4,M,0,N,0,K
47:24.569 $GPGGA,055129.00,5326.1729618,N,11109.6028200,W,4,12,0.9,300,M,46.9,M,,,
47:24.578 $GPVTG,0,T,034.4,M,0,N,0,K
47:24.680 $GPGGA,055129.00,5326.1729618,N,11109.6028200,W,4,12,0.9,300,M,46.9,M,,,
47:24.684 $GPVTG,0,T,034.4,M,0,N,0,K
47:24.787 $GPGGA,055129.00,5326.1729618,N,11109.6028200,W,4,12,0.9,300,M,46.9,M,,,
47:24.794 $GPVTG,0,T,034.4,M,0,N,0,K
47:24.897 $GPGGA,055129.00,5326.1729618,N,11109.6028200,W,4,12,0.9,300,M,46.9,M,,,
47:24.901 $GPVTG,0,T,034.4,M,0,N,0,K
47:25.004 $GPGGA,055129.00,5326.1729618,N,11109.6028200,W,4,12,0.9,300,M,46.9,M,,,
47:25.012 $GPVTG,0,T,034.4,M,0,N,0,K
47:25.114 $GPGGA,055129.00,5326.1729618,N,11109.6028200,W,4,12,0.9,300,M,46.9,M,,,
47:25.118 $GPVTG,0,T,034.4,M,0,N,0,K
47:25.221 $GPGGA,055129.00,5326.1729618,N,11109.6028200,W,4,12,0.9,300,M,46.9,M,,,
47:25.229 $GPVTG,0,T,034.4,M,0,N,0,K
47:25.331 $GPGGA,055129.00,5326.1729618,N,11109.6028200,W,4,12,0.9,300,M,46.9,M,,,
47:25.335 $GPVTG,0,T,034.4,M,0,N,0,K
47:25.438 $GPGGA,055129.00,5326.1729618,N,11109.6028200,W,4,12,0.9,300,M,46.9,M,,,
47:25.442 $GPVTG,0,T,034.4,M,0,N,0,K
47:25.548 $GPGGA,055129.00,5326.1729618,N,11109.6028200,W,4,12,0.9,300,M,46.9,M,,,
47:25.552 $GPVTG,0,T,034.4,M,0,N,0,K
47:25.655 $GPGGA,055129.00,5326.1729618,N,11109.6028200,W,4,12,0.9,300,M,46.9,M,,,
47:25.659 $GPVTG,0,T,034.4,M,0,N,0,K
47:25.765 $GPGGA,055129.00,5326.1729618,N,11109.6028200,W,4,12,0.9,300,M,46.9,M,,,
47:25.769 $GPVTG,0,T,034.4,M,0,N,0,K
47:25.872 $GPGGA,055129.00,5326.1729618,N,11109.6028200,W,4,12,0.9,300,M,46.9,M,,,
47:25.875 $GPVTG,0,T,034.4,M,0,N,0,K
47:25.982 $GPGGA,055129.00,5326.1729618,N,11109.6028200,W,4,12,0.9,300,M,46.9,M,,,
47:25.986 $GPVTG,0,T,034.4,M,0,N,0,K
47:26.089 $GPGGA,055129.00,5326.1729618,N,11109.6028200,W,4,12,0.9,300,M,46.9,M,,,
47:26.092 $GPVTG,0,T,034.4,M,0,N,0,K
47:26.195 $GPGGA,055129.00,5326.1729618,N,11109.6028200,W,4,12,0.9,300,M,46.9,M,,,
47:26.203 $GPVTG,0,T,034.4,M,0,N,0,K
47:26.306 $GPGGA,055129.00,5326.1729618,N,11109.6028200,W,4,12,0.9,300,M,46.9,M,,,
47:26.309 $GPVTG,0,T,034.4,M,0,N,0,K
47:26.413 $GPGGA,055129.00,5326.1729618,N,11109.6028200,W,4,12,0.9,300,M,46.9,M,,,
47:26.421 $GPVTG,0,T,034.4,M,0,N,0,K
47:26.523 $GPGGA,055129.00,5326.1729618,N,11109.6028200,W,4,12,0.9,300,M,46.9,M,,,
47:26.527 $GPVTG,0,T,034.4,M,0,N,0,K
47:26.630 $GPGGA,055129.00,5326.1729618,N,11109.6028200,W,4,12,0.9,300,M,46.9,M,,,
47:26.638 $GPVTG,0,T,034.4,M,0,N,0,K
47:26.740 $GPGGA,055129.00,5326.1729618,N,11109.6028200,W,4,12,0.9,300,M,46.9,M,,,
47:26.744 $GPVTG,0,T,034.4,M,0,N,0,K
47:26.847 $GPGGA,055129.00,5326.1729618,N,11109.6028200,W,4,12,0.9,300,M,46.9,M,,,
47:26.854 $GPVTG,0,T,034.4,M,0,N,0,K
47:26.957 $GPGGA,055129.00,5326.1729618,N,11109.6028200,W,4,12,0.9,300,M,46.9,M,,,
47:26.961 $GPVTG,0,T,034.4,M,0,N,0,K
47:27.064 $GPGGA,055129.00,5326.1729618,N,11109.6028200,W,4,12,0.9,300,M,46.9,M,,,
47:27.068 $GPVTG,0,T,034.4,M,0,N,0,K
47:27.174 $GPGGA,055129.00,5326.1729618,N,11109.6028200,W,4,12,0.9,300,M,46.9,M,,,
47:27.178 $GPVTG,0,T,034.4,M,0,N,0,K
47:27.281 $GPGGA,055129.00,5326.1729618,N,11109.6028200,W,4,12,0.9,300,M,46.9,M,,,
47:27.285 $GPVTG,0,T,034.4,M,0,N,0,K
47:27.391 $GPGGA,055129.00,5326.1729618,N,11109.6028200,W,4,12,0.9,300,M,46.9,M,,,
47:27.395 $GPVTG,0,T,034.4,M,0,N,0,K
47:27.498 $GPGGA,055129.00,5326.1729618,N,11109.6028200,W,4,12,0.9,300,M,46.9,M,,,
47:27.503 $GPVTG,0,T,034.4,M,0,N,0,K
47:27.604 $GPGGA,055129.00,5326.1729618,N,11109.6028200,W,4,12,0.9,300,M,46.9,M,,,
47:27.612 $GPVTG,0,T,034.4,M,0,N,0,K
47:27.715 $GPGGA,055129.00,5326.1729618,N,11109.6028200,W,4,12,0.9,300,M,46.9,M,,,
47:27.719 $GPVTG,0,T,034.4,M,0,N,0,K
47:27.821 $GPGGA,055129.00,5326.1729618,N,11109.6028200,W,4,12,0.9,300,M,46.9,M,,,
47:27.829 $GPVTG,0,T,034.4,M,0,N,0,K
47:27.932 $GPGGA,055129.00,5326.1729618,N,11109.6028200,W,4,12,0.9,300,M,46.9,M,,,
47:27.935 $GPVTG,0,T,034.4,M,0,N,0,K
47:28.039 $GPGGA,055129.00,5326.1729618,N,11109.6028200,W,4,12,0.9,300,M,46.9,M,,,
47:28.046 $GPVTG,0,T,034.4,M,0,N,0,K
47:28.149 $GPGGA,055129.00,5326.1729618,N,11109.6028200,W,4,12,0.9,300,M,46.9,M,,,
47:28.153 $GPVTG,0,T,034.4,M,0,N,0,K
47:28.256 $GPGGA,055129.00,5326.1729618,N,11109.6028200,W,4,12,0.9,300,M,46.9,M,,,
47:28.264 $GPVTG,0,T,034.4,M,0,N,0,K
47:28.365 $GPGGA,055129.00,5326.1729618,N,11109.6028200,W,4,12,0.9,300,M,46.9,M,,,
47:28.370 $GPVTG,0,T,034.4,M,0,N,0,K
47:28.473 $GPGGA,055129.00,5326.1729618,N,11109.6028200,W,4,12,0.9,300,M,46.9,M,,,
47:28.477 $GPVTG,0,T,034.4,M,0,N,0,K
47:28.583 $GPGGA,055129.00,5326.1729618,N,11109.6028200,W,4,12,0.9,300,M,46.9,M,,,
47:28.587 $GPVTG,0,T,034.4,M,0,N,0,K
47:28.689 $GPGGA,055129.00,5326.1729618,N,11109.6028200,W,4,12,0.9,300,M,46.9,M,,,
47:28.694 $GPVTG,0,T,034.4,M,0,N,0,K
47:28.800 $GPGGA,055129.00,5326.1729618,N,11109.6028200,W,4,12,0.9,300,M,46.9,M,,,
47:28.804 $GPVTG,0,T,034.4,M,0,N,0,K
47:28.907 $GPGGA,055129.00,5326.1729618,N,11109.6028200,W,4,12,0.9,300,M,46.9,M,,,
47:28.911 $GPVTG,0,T,034.4,M,0,N,0,K
47:29.013 $GPGGA,055129.00,5326.1729618,N,11109.6028200,W,4,12,0.9,300,M,46.9,M,,,
47:29.021 $GPVTG,0,T,034.4,M,0,N,0,K
47:29.124 $GPGGA,055129.00,5326.1729618,N,11109.6028200,W,4,12,0.9,300,M,46.9,M,,,
47:29.128 $GPVTG,0,T,034.4,M,0,N,0,K
47:29.230 $GPGGA,055129.00,5326.1729618,N,11109.6028200,W,4,12,0.9,300,M,46.9,M,,,
47:29.239 $GPVTG,0,T,034.4,M,0,N,0,K
47:29.341 $GPGGA,055129.00,5326.1729618,N,11109.6028200,W,4,12,0.9,300,M,46.9,M,,,
47:29.345 $GPVTG,0,T,034.4,M,0,N,0,K
47:29.447 $GPGGA,055129.00,5326.1729618,N,11109.6028200,W,4,12,0.9,300,M,46.9,M,,,
47:29.456 $GPVTG,0,T,034.4,M,0,N,0,K
47:29.558 $GPGGA,055129.00,5326.1729618,N,11109.6028200,W,4,12,0.9,300,M,46.9,M,,,
47:29.562 $GPVTG,0,T,034.4,M,0,N,0,K
47:29.664 $GPGGA,055129.00,5326.1729618,N,11109.6028200,W,4,12,0.9,300,M,46.9,M,,,
47:29.673 $GPVTG,0,T,034.4,M,0,N,0,K
47:29.774 $GPGGA,055129.00,5326.1729618,N,11109.6028200,W,4,12,0.9,300,M,46.9,M,,,
47:29.779 $GPVTG,0,T,034.4,M,0,N,0,K
47:29.881 $GPGGA,055129.00,5326.1729618,N,11109.6028200,W,4,12,0.9,300,M,46.9,M,,,
47:29.885 $GPVTG,0,T,034.4,M,0,N,0,K
47:29.992 $GPGGA,055129.00,5326.1729618,N,11109.6028200,W,4,12,0.9,300,M,46.9,M,,,
47:29.996 $GPVTG,0,T,034.4,M,0,N,0,K
47:30.098 $GPGGA,055129.00,5326.1729618,N,11109.6028200,W,4,12,0.9,300,M,46.9,M,,,
47:30.102 $GPVTG,0,T,034.4,M,0,N,0,K
47:30.209 $GPGGA,055129.00,5326.1729618,N,11109.6028200,W,4,12,0.9,300,M,46.9,M,,,
47:30.213 $GPVTG,0,T,034.4,M,0,N,0,K
47:30.315 $GPGGA,055129.00,5326.1729618,N,11109.6028200,W,4,12,0.9,300,M,46.9,M,,,
47:30.319 $GPVTG,0,T,034.4,M,0,N,0,K
47:30.426 $GPGGA,055129.00,5326.1729618,N,11109.6028200,W,4,12,0.9,300,M,46.9,M,,,
47:30.430 $GPVTG,0,T,034.4,M,0,N,0,K
47:30.532 $GPGGA,055129.00,5326.1729618,N,11109.6028200,W,4,12,0.9,300,M,46.9,M,,,
47:30.536 $GPVTG,0,T,034.4,M,0,N,0,K
47:30.639 $GPGGA,055129.00,5326.1729618,N,11109.6028200,W,4,12,0.9,300,M,46.9,M,,,
47:30.647 $GPVTG,0,T,034.4,M,0,N,0,K
47:30.750 $GPGGA,055129.00,5326.1729618,N,11109.6028200,W,4,12,0.9,300,M,46.9,M,,,
47:30.754 $GPVTG,0,T,034.4,M,0,N,0,K
47:30.857 $GPGGA,055129.00,5326.1729618,N,11109.6028200,W,4,12,0.9,300,M,46.9,M,,,
47:30.865 $GPVTG,0,T,034.4,M,0,N,0,K
47:30.967 $GPGGA,055129.00,5326.1729618,N,11109.6028200,W,4,12,0.9,300,M,46.9,M,,,
47:30.971 $GPVTG,0,T,034.4,M,0,N,0,K
47:31.074 $GPGGA,055129.00,5326.1729618,N,11109.6028200,W,4,12,0.9,300,M,46.9,M,,,
47:31.081 $GPVTG,0,T,034.4,M,0,N,0,K
47:31.184 $GPGGA,055129.00,5326.1729618,N,11109.6028200,W,4,12,0.9,300,M,46.9,M,,,
47:31.188 $GPVTG,0,T,034.4,M,0,N,0,K
47:31.291 $GPGGA,055129.00,5326.1729618,N,11109.6028200,W,4,12,0.9,300,M,46.9,M,,,
47:31.298 $GPVTG,0,T,034.4,M,0,N,0,K
47:31.401 $GPGGA,055129.00,5326.1729618,N,11109.6028200,W,4,12,0.9,300,M,46.9,M,,,
47:31.405 $GPVTG,0,T,034.4,M,0,N,0,K
47:31.507 $GPGGA,055129.00,5326.1729618,N,11109.6028200,W,4,12,0.9,300,M,46.9,M,,,
47:31.512 $GPVTG,0,T,034.4,M,0,N,0,K
47:31.618 $GPGGA,055129.00,5326.1729618,N,11109.6028200,W,4,12,0.9,300,M,46.9,M,,,
47:31.622 $GPVTG,0,T,034.4,M,0,N,0,K
47:31.725 $GPGGA,055129.00,5326.1729618,N,11109.6028200,W,4,12,0.9,300,M,46.9,M,,,
47:31.729 $GPVTG,0,T,034.4,M,0,N,0,K
47:31.835 $GPGGA,055129.00,5326.1729618,N,11109.6028200,W,4,12,0.9,300,M,46.9,M,,,
47:31.839 $GPVTG,0,T,034.4,M,0,N,0,K
47:31.942 $GPGGA,055129.00,5326.1729618,N,11109.6028200,W,4,12,0.9,300,M,46.9,M,,,
47:31.946 $GPVTG,0,T,034.4,M,0,N,0,K
47:32.048 $GPGGA,055129.00,5326.1729618,N,11109.6028200,W,4,12,0.9,300,M,46.9,M,,,
47:32.056 $GPVTG,0,T,034.4,M,0,N,0,K
47:32.159 $GPGGA,055129.00,5326.1729618,N,11109.6028200,W,4,12,0.9,300,M,46.9,M,,,
47:32.163 $GPVTG,0,T,034.4,M,0,N,0,K
47:32.265 $GPGGA,055129.00,5326.1729618,N,11109.6028200,W,4,12,0.9,300,M,46.9,M,,,
47:32.273 $GPVTG,0,T,034.4,M,0,N,0,K
47:32.376 $GPGGA,055129.00,5326.1729618,N,11109.6028200,W,4,12,0.9,300,M,46.9,M,,,
47:32.380 $GPVTG,0,T,034.4,M,0,N,0,K
47:32.483 $GPGGA,055129.00,5326.1729618,N,11109.6028200,W,4,12,0.9,300,M,46.9,M,,,
47:32.490 $GPVTG,0,T,034.4,M,0,N,0,K
47:32.593 $GPGGA,055129.00,5326.1729618,N,11109.6028200,W,4,12,0.9,300,M,46.9,M,,,
47:32.597 $GPVTG,0,T,034.4,M,0,N,0,K
47:32.699 $GPGGA,055129.00,5326.1729618,N,11109.6028200,W,4,12,0.9,300,M,46.9,M,,,
47:32.707 $GPVTG,0,T,034.4,M,0,N,0,K
47:32.810 $GPGGA,055129.00,5326.1729618,N,11109.6028200,W,4,12,0.9,300,M,46.9,M,,,
47:32.814 $GPVTG,0,T,034.4,M,0,N,0,K
47:32.916 $GPGGA,055129.00,5326.1729618,N,11109.6028200,W,4,12,0.9,300,M,46.9,M,,,
47:32.920 $GPVTG,0,T,034.4,M,0,N,0,K
47:33.027 $GPGGA,055129.00,5326.1729618,N,11109.6028200,W,4,12,0.9,300,M,46.9,M,,,
47:33.031 $GPVTG,0,T,034.4,M,0,N,0,K
47:33.134 $GPGGA,055129.00,5326.1729618,N,11109.6028200,W,4,12,0.9,300,M,46.9,M,,,
47:33.138 $GPVTG,0,T,034.4,M,0,N,0,K
47:33.244 $GPGGA,055129.00,5326.1729618,N,11109.6028200,W,4,12,0.9,300,M,46.9,M,,,
47:33.248 $GPVTG,0,T,034.4,M,0,N,0,K
47:33.351 $GPGGA,055129.00,5326.1729618,N,11109.6028200,W,4,12,0.9,300,M,46.9,M,,,
47:33.354 $GPVTG,0,T,034.4,M,0,N,0,K
47:33.461 $GPGGA,055129.00,5326.1729618,N,11109.6028200,W,4,12,0.9,300,M,46.9,M,,,
47:33.465 $GPVTG,0,T,034.4,M,0,N,0,K
47:33.567 $GPGGA,055129.00,5326.1729618,N,11109.6028200,W,4,12,0.9,300,M,46.9,M,,,
47:33.572 $GPVTG,0,T,034.4,M,0,N,0,K
47:33.674 $GPGGA,055129.00,5326.1729618,N,11109.6028200,W,4,12,0.9,300,M,46.9,M,,,
47:33.682 $GPVTG,0,T,034.4,M,0,N,0,K
47:33.785 $GPGGA,055129.00,5326.1729618,N,11109.6028200,W,4,12,0.9,300,M,46.9,M,,,
47:33.789 $GPVTG,0,T,034.4,M,0,N,0,K
47:33.891 $GPGGA,055129.00,5326.1729618,N,11109.6028200,W,4,12,0.9,300,M,46.9,M,,,
47:33.898 $GPVTG,0,T,034.4,M,0,N,0,K
47:34.001 $GPGGA,055129.00,5326.1729618,N,11109.6028200,W,4,12,0.9,300,M,46.9,M,,,
47:34.005 $GPVTG,0,T,034.4,M,0,N,0,K
47:34.110 $GPGGA,055129.00,5326.1729618,N,11109.6028200,W,4,12,0.9,300,M,46.9,M,,,
47:34.116 $GPVTG,0,T,034.4,M,0,N,0,K
47:34.218 $GPGGA,055129.00,5326.1729618,N,11109.6028200,W,4,12,0.9,300,M,46.9,M,,,
47:34.222 $GPVTG,0,T,034.4,M,0,N,0,K
47:34.325 $GPGGA,055129.00,5326.1729618,N,11109.6028200,W,4,12,0.9,300,M,46.9,M,,,
47:34.334 $GPVTG,0,T,034.4,M,0,N,0,K
47:34.435 $GPGGA,055129.00,5326.1729618,N,11109.6028200,W,4,12,0.9,300,M,46.9,M,,,
47:34.439 $GPVTG,0,T,034.4,M,0,N,0,K
47:34.542 $GPGGA,055129.00,5326.1729618,N,11109.6028200,W,4,12,0.9,300,M,46.9,M,,,
47:34.547 $GPVTG,0,T,034.4,M,0,N,0,K
47:34.652 $GPGGA,055129.00,5326.1729618,N,11109.6028200,W,4,12,0.9,300,M,46.9,M,,,
47:34.657 $GPVTG,0,T,034.4,M,0,N,0,K
47:34.760 $GPGGA,055129.00,5326.1729618,N,11109.6028200,W,4,12,0.9,300,M,46.9,M,,,
47:34.763 $GPVTG,0,T,034.4,M,0,N,0,K
47:34.870 $GPGGA,055129.00,5326.1729618,N,11109.6028200,W,4,12,0.9,300,M,46.9,M,,,
47:34.874 $GPVTG,0,T,034.4,M,0,N,0,K
47:34.977 $GPGGA,055129.00,5326.1729618,N,11109.6028200,W,4,12,0.9,300,M,46.9,M,,,
47:34.981 $GPVTG,0,T,034.4,M,0,N,0,K
47:35.083 $GPGGA,055129.00,5326.1729618,N,11109.6028200,W,4,12,0.9,300,M,46.9,M,,,
47:35.091 $GPVTG,0,T,034.4,M,0,N,0,K
47:35.194 $GPGGA,055129.00,5326.1729618,N,11109.6028200,W,4,12,0.9,300,M,46.9,M,,,
47:35.199 $GPVTG,0,T,034.4,M,0,N,0,K
47:35.300 $GPGGA,055129.00,5326.1729618,N,11109.6028200,W,4,12,0.9,300,M,46.9,M,,,
47:35.308 $GPVTG,0,T,034.4,M,0,N,0,K
47:35.411 $GPGGA,055129.00,5326.1729618,N,11109.6028200,W,4,12,0.9,300,M,46.9,M,,,
47:35.414 $GPVTG,0,T,034.4,M,0,N,0,K
47:35.517 $GPGGA,055129.00,5326.1729618,N,11109.6028200,W,4,12,0.9,300,M,46.9,M,,,
47:35.525 $GPVTG,0,T,034.4,M,0,N,0,K
47:35.628 $GPGGA,055129.00,5326.1729618,N,11109.6028200,W,4,12,0.9,300,M,46.9,M,,,
47:35.632 $GPVTG,0,T,034.4,M,0,N,0,K
47:35.734 $GPGGA,055129.00,5326.1729618,N,11109.6028200,W,4,12,0.9,300,M,46.9,M,,,
47:35.742 $GPVTG,0,T,034.4,M,0,N,0,K
47:35.845 $GPGGA,055129.00,5326.1729618,N,11109.6028200,W,4,12,0.9,300,M,46.9,M,,,
47:35.848 $GPVTG,0,T,034.4,M,0,N,0,K
47:35.951 $GPGGA,055129.00,5326.1729618,N,11109.6028200,W,4,12,0.9,300,M,46.9,M,,,
47:35.955 $GPVTG,0,T,034.4,M,0,N,0,K
47:36.062 $GPGGA,055129.00,5326.1729618,N,11109.6028200,W,4,12,0.9,300,M,46.9,M,,,
47:36.065 $GPVTG,0,T,034.4,M,0,N,0,K
47:36.168 $GPGGA,055129.00,5326.1729618,N,11109.6028200,W,4,12,0.9,300,M,46.9,M,,,
47:36.173 $GPVTG,0,T,034.4,M,0,N,0,K
47:36.279 $GPGGA,055129.00,5326.1729618,N,11109.6028200,W,4,12,0.9,300,M,46.9,M,,,
47:36.283 $GPVTG,0,T,034.4,M,0,N,0,K
47:36.385 $GPGGA,055129.00,5326.1729618,N,11109.6028200,W,4,12,0.9,300,M,46.9,M,,,
47:36.390 $GPVTG,0,T,034.4,M,0,N,0,K
47:36.492 $GPGGA,055129.00,5326.1729618,N,11109.6028200,W,4,12,0.9,300,M,46.9,M,,,
47:36.501 $GPVTG,0,T,034.4,M,0,N,0,K
47:36.603 $GPGGA,055129.00,5326.1729618,N,11109.6028200,W,4,12,0.9,300,M,46.9,M,,,
47:36.607 $GPVTG,0,T,034.4,M,0,N,0,K
47:36.709 $GPGGA,055129.00,5326.1729618,N,11109.6028200,W,4,12,0.9,300,M,46.9,M,,,
47:36.717 $GPVTG,0,T,034.4,M,0,N,0,K
47:36.820 $GPGGA,055129.00,5326.1729618,N,11109.6028200,W,4,12,0.9,300,M,46.9,M,,,
47:36.824 $GPVTG,0,T,034.4,M,0,N,0,K
47:36.926 $GPGGA,055129.00,5326.1729618,N,11109.6028200,W,4,12,0.9,300,M,46.9,M,,,
47:36.934 $GPVTG,0,T,034.4,M,0,N,0,K
47:37.037 $GPGGA,055129.00,5326.1729618,N,11109.6028200,W,4,12,0.9,300,M,46.9,M,,,
47:37.040 $GPVTG,0,T,034.4,M,0,N,0,K
47:37.143 $GPGGA,055129.00,5326.1729618,N,11109.6028200,W,4,12,0.9,300,M,46.9,M,,,
47:37.151 $GPVTG,0,T,034.4,M,0,N,0,K
47:37.254 $GPGGA,055129.00,5326.1729618,N,11109.6028200,W,4,12,0.9,300,M,46.9,M,,,
47:37.258 $GPVTG,0,T,034.4,M,0,N,0,K
47:37.361 $GPGGA,055129.00,5326.1729618,N,11109.6028200,W,4,12,0.9,300,M,46.9,M,,,
47:37.364 $GPVTG,0,T,034.4,M,0,N,0,K
47:37.471 $GPGGA,055129.00,5326.1729618,N,11109.6028200,W,4,12,0.9,300,M,46.9,M,,,
47:37.475 $GPVTG,0,T,034.4,M,0,N,0,K
47:37.577 $GPGGA,055129.00,5326.1729618,N,11109.6028200,W,4,12,0.9,300,M,46.9,M,,,
47:37.581 $GPVTG,0,T,034.4,M,0,N,0,K
47:37.688 $GPGGA,055129.00,5326.1729618,N,11109.6028200,W,4,12,0.9,300,M,46.9,M,,,
47:37.692 $GPVTG,0,T,034.4,M,0,N,0,K
47:37.795 $GPGGA,055129.00,5326.1729618,N,11109.6028200,W,4,12,0.9,300,M,46.9,M,,,
47:37.799 $GPVTG,0,T,034.4,M,0,N,0,K
47:37.905 $GPGGA,055129.00,5326.1729618,N,11109.6028200,W,4,12,0.9,300,M,46.9,M,,,
47:37.909 $GPVTG,0,T,034.4,M,0,N,0,K
47:38.012 $GPGGA,055129.00,5326.1729618,N,11109.6028200,W,4,12,0.9,300,M,46.9,M,,,
47:38.016 $GPVTG,0,T,034.4,M,0,N,0,K
47:38.118 $GPGGA,055129.00,5326.1729618,N,11109.6028200,W,4,12,0.9,300,M,46.9,M,,,
47:38.126 $GPVTG,0,T,034.4,M,0,N,0,K
47:38.229 $GPGGA,055129.00,5326.1729618,N,11109.6028200,W,4,12,0.9,300,M,46.9,M,,,
47:38.233 $GPVTG,0,T,034.4,M,0,N,0,K
47:38.335 $GPGGA,055129.00,5326.1729618,N,11109.6028200,W,4,12,0.9,300,M,46.9,M,,,
47:38.343 $GPVTG,0,T,034.4,M,0,N,0,K
47:38.446 $GPGGA,055129.00,5326.1729618,N,11109.6028200,W,4,12,0.9,300,M,46.9,M,,,
47:38.450 $GPVTG,0,T,034.4,M,0,N,0,K
47:38.551 $GPGGA,055129.00,5326.1729618,N,11109.6028200,W,4,12,0.9,300,M,46.9,M,,,
47:38.560 $GPVTG,0,T,034.4,M,0,N,0,K
47:38.663 $GPGGA,055129.00,5326.1729618,N,11109.6028200,W,4,12,0.9,300,M,46.9,M,,,
47:38.667 $GPVTG,0,T,034.4,M,0,N,0,K
47:38.769 $GPGGA,055129.00,5326.1729618,N,11109.6028200,W,4,12,0.9,300,M,46.9,M,,,
47:38.777 $GPVTG,0,T,034.4,M,0,N,0,K
47:38.880 $GPGGA,055129.00,5326.1729618,N,11109.6028200,W,4,12,0.9,300,M,46.9,M,,,
47:38.884 $GPVTG,0,T,034.4,M,0,N,0,K
47:38.986 $GPGGA,055129.00,5326.1729618,N,11109.6028200,W,4,12,0.9,300,M,46.9,M,,,
47:38.990 $GPVTG,0,T,034.4,M,0,N,0,K
47:39.097 $GPGGA,055129.00,5326.1729618,N,11109.6028200,W,4,12,0.9,300,M,46.9,M,,,
47:39.101 $GPVTG,0,T,034.4,M,0,N,0,K
47:39.204 $GPGGA,055129.00,5326.1729618,N,11109.6028200,W,4,12,0.9,300,M,46.9,M,,,
47:39.207 $GPVTG,0,T,034.4,M,0,N,0,K
47:39.314 $GPGGA,055129.00,5326.1729618,N,11109.6028200,W,4,12,0.9,300,M,46.9,M,,,
47:39.318 $GPVTG,0,T,034.4,M,0,N,0,K
47:39.421 $GPGGA,055129.00,5326.1729618,N,11109.6028200,W,4,12,0.9,300,M,46.9,M,,,
47:39.424 $GPVTG,0,T,034.4,M,0,N,0,K
47:39.527 $GPGGA,055129.00,5326.1729618,N,11109.6028200,W,4,12,0.9,300,M,46.9,M,,,
47:39.535 $GPVTG,0,T,034.4,M,0,N,0,K
47:39.638 $GPGGA,055129.00,5326.1729618,N,11109.6028200,W,4,12,0.9,300,M,46.9,M,,,
47:39.642 $GPVTG,0,T,034.4,M,0,N,0,K
47:39.744 $GPGGA,055129.00,5326.1729618,N,11109.6028200,W,4,12,0.9,300,M,46.9,M,,,
47:39.752 $GPVTG,0,T,034.4,M,0,N,0,K
47:39.855 $GPGGA,055129.00,5326.1729618,N,11109.6028200,W,4,12,0.9,300,M,46.9,M,,,
47:39.859 $GPVTG,0,T,034.4,M,0,N,0,K
47:39.961 $GPGGA,055129.00,5326.1729618,N,11109.6028200,W,4,12,0.9,300,M,46.9,M,,,
47:39.969 $GPVTG,0,T,034.4,M,0,N,0,K
47:40.072 $GPGGA,055129.00,5326.1729618,N,11109.6028200,W,4,12,0.9,300,M,46.9,M,,,
47:40.075 $GPVTG,0,T,034.4,M,0,N,0,K
47:40.178 $GPGGA,055129.00,5326.1729618,N,11109.6028200,W,4,12,0.9,300,M,46.9,M,,,
47:40.186 $GPVTG,0,T,034.4,M,0,N,0,K
47:40.289 $GPGGA,055129.00,5326.1729618,N,11109.6028200,W,4,12,0.9,300,M,46.9,M,,,
47:40.292 $GPVTG,0,T,034.4,M,0,N,0,K
47:40.396 $GPGGA,055129.00,5326.1729618,N,11109.6028200,W,4,12,0.9,300,M,46.9,M,,,
47:40.400 $GPVTG,0,T,034.4,M,0,N,0,K
47:40.505 $GPGGA,055129.00,5326.1729618,N,11109.6028200,W,4,12,0.9,300,M,46.9,M,,,
47:40.509 $GPVTG,0,T,034.4,M,0,N,0,K
47:40.612 $GPGGA,055129.00,5326.1729618,N,11109.6028200,W,4,12,0.9,300,M,46.9,M,,,
47:40.616 $GPVTG,0,T,034.4,M,0,N,0,K
47:40.723 $GPGGA,055129.00,5326.1729618,N,11109.6028200,W,4,12,0.9,300,M,46.9,M,,,
47:40.726 $GPVTG,0,T,034.4,M,0,N,0,K
47:40.830 $GPGGA,055129.00,5326.1729618,N,11109.6028200,W,4,12,0.9,300,M,46.9,M,,,
47:40.833 $GPVTG,0,T,034.4,M,0,N,0,K
47:40.936 $GPGGA,055129.00,5326.1729618,N,11109.6028200,W,4,12,0.9,300,M,46.9,M,,,
47:40.944 $GPVTG,0,T,034.4,M,0,N,0,K
47:41.047 $GPGGA,055129.00,5326.1729618,N,11109.6028200,W,4,12,0.9,300,M,46.9,M,,,
47:41.051 $GPVTG,0,T,034.4,M,0,N,0,K
47:41.153 $GPGGA,055129.00,5326.1729618,N,11109.6028200,W,4,12,0.9,300,M,46.9,M,,,
47:41.161 $GPVTG,0,T,034.4,M,0,N,0,K
47:41.264 $GPGGA,055129.00,5326.1729618,N,11109.6028200,W,4,12,0.9,300,M,46.9,M,,,
47:41.268 $GPVTG,0,T,034.4,M,0,N,0,K
47:41.370 $GPGGA,055129.00,5326.1729618,N,11109.6028200,W,4,12,0.9,300,M,46.9,M,,,
47:41.378 $GPVTG,0,T,034.4,M,0,N,0,K
47:41.481 $GPGGA,055129.00,5326.1729618,N,11109.6028200,W,4,12,0.9,300,M,46.9,M,,,
47:41.485 $GPVTG,0,T,034.4,M,0,N,0,K
47:41.587 $GPGGA,055129.00,5326.1729618,N,11109.6028200,W,4,12,0.9,300,M,46.9,M,,,
47:41.595 $GPVTG,0,T,034.4,M,0,N,0,K
47:41.698 $GPGGA,055129.00,5326.1729618,N,11109.6028200,W,4,12,0.9,300,M,46.9,M,,,
47:41.702 $GPVTG,0,T,034.4,M,0,N,0,K
47:41.804 $GPGGA,055129.00,5326.1729618,N,11109.6028200,W,4,12,0.9,300,M,46.9,M,,,
47:41.808 $GPVTG,0,T,034.4,M,0,N,0,K
47:41.915 $GPGGA,055129.00,5326.1729618,N,11109.6028200,W,4,12,0.9,300,M,46.9,M,,,
47:41.919 $GPVTG,0,T,034.4,M,0,N,0,K
47:42.021 $GPGGA,055129.00,5326.1729618,N,11109.6028200,W,4,12,0.9,300,M,46.9,M,,,
47:42.025 $GPVTG,0,T,034.4,M,0,N,0,K
47:42.132 $GPGGA,055129.00,5326.1729618,N,11109.6028200,W,4,12,0.9,300,M,46.9,M,,,
47:42.136 $GPVTG,0,T,034.4,M,0,N,0,K
47:42.238 $GPGGA,055129.00,5326.1729618,N,11109.6028200,W,4,12,0.9,300,M,46.9,M,,,
47:42.243 $GPVTG,0,T,034.4,M,0,N,0,K
47:42.349 $GPGGA,055129.00,5326.1729618,N,11109.6028200,W,4,12,0.9,300,M,46.9,M,,,
47:42.353 $GPVTG,0,T,034.4,M,0,N,0,K
47:42.456 $GPGGA,055129.00,5326.1729618,N,11109.6028200,W,4,12,0.9,300,M,46.9,M,,,
47:42.459 $GPVTG,0,T,034.4,M,0,N,0,K
47:42.562 $GPGGA,055129.00,5326.1729618,N,11109.6028200,W,4,12,0.9,300,M,46.9,M,,,
47:42.570 $GPVTG,0,T,034.4,M,0,N,0,K
47:42.673 $GPGGA,055129.00,5326.1729618,N,11109.6028200,W,4,12,0.9,300,M,46.9,M,,,
47:42.677 $GPVTG,0,T,034.4,M,0,N,0,K
47:42.779 $GPGGA,055129.00,5326.1729618,N,11109.6028200,W,4,12,0.9,300,M,46.9,M,,,
47:42.787 $GPVTG,0,T,034.4,M,0,N,0,K
47:42.890 $GPGGA,055129.00,5326.1729618,N,11109.6028200,W,4,12,0.9,300,M,46.9,M,,,
47:42.894 $GPVTG,0,T,034.4,M,0,N,0,K
47:42.996 $GPGGA,055129.00,5326.1729618,N,11109.6028200,W,4,12,0.9,300,M,46.9,M,,,
47:43.004 $GPVTG,0,T,034.4,M,0,N,0,K
47:43.107 $GPGGA,055129.00,5326.1729618,N,11109.6028200,W,4,12,0.9,300,M,46.9,M,,,
47:43.111 $GPVTG,0,T,034.4,M,0,N,0,K
47:43.213 $GPGGA,055129.00,5326.1729618,N,11109.6028200,W,4,12,0.9,300,M,46.9,M,,,
47:43.221 $GPVTG,0,T,034.4,M,0,N,0,K
47:43.323 $GPGGA,055129.00,5326.1729618,N,11109.6028200,W,4,12,0.9,300,M,46.9,M,,,
47:43.328 $GPVTG,0,T,034.4,M,0,N,0,K
47:43.431 $GPGGA,055129.00,5326.1729618,N,11109.6028200,W,4,12,0.9,300,M,46.9,M,,,
47:43.435 $GPVTG,0,T,034.4,M,0,N,0,K
47:43.541 $GPGGA,055129.00,5326.1729618,N,11109.6028200,W,4,12,0.9,300,M,46.9,M,,,
47:43.545 $GPVTG,0,T,034.4,M,0,N,0,K
47:43.648 $GPGGA,055129.00,5326.1729618,N,11109.6028200,W,4,12,0.9,300,M,46.9,M,,,
47:43.651 $GPVTG,0,T,034.4,M,0,N,0,K
47:43.758 $GPGGA,055129.00,5326.1729618,N,11109.6028200,W,4,12,0.9,300,M,46.9,M,,,
47:43.762 $GPVTG,0,T,034.4,M,0,N,0,K
47:43.864 $GPGGA,055129.00,5326.1729618,N,11109.6028200,W,4,12,0.9,300,M,46.9,M,,,
47:43.868 $GPVTG,0,T,034.4,M,0,N,0,K
47:43.971 $GPGGA,055129.00,5326.1729618,N,11109.6028200,W,4,12,0.9,300,M,46.9,M,,,
47:43.979 $GPVTG,0,T,034.4,M,0,N,0,K
47:44.082 $GPGGA,055129.00,5326.1729618,N,11109.6028200,W,4,12,0.9,300,M,46.9,M,,,
47:44.086 $GPVTG,0,T,034.4,M,0,N,0,K
47:44.188 $GPGGA,055129.00,5326.1729618,N,11109.6028200,W,4,12,0.9,300,M,46.9,M,,,
47:44.196 $GPVTG,0,T,034.4,M,0,N,0,K
47:44.299 $GPGGA,055129.00,5326.1729618,N,11109.6028200,W,4,12,0.9,300,M,46.9,M,,,
47:44.303 $GPVTG,0,T,034.4,M,0,N,0,K
47:44.405 $GPGGA,055129.00,5326.1729618,N,11109.6028200,W,4,12,0.9,300,M,46.9,M,,,
47:44.413 $GPVTG,0,T,034.4,M,0,N,0,K
47:44.516 $GPGGA,055129.00,5326.1729618,N,11109.6028200,W,4,12,0.9,300,M,46.9,M,,,
47:44.519 $GPVTG,0,T,034.4,M,0,N,0,K
47:44.621 $GPGGA,055129.00,5326.1729618,N,11109.6028200,W,4,12,0.9,300,M,46.9,M,,,
47:44.629 $GPVTG,0,T,034.4,M,0,N,0,K
47:44.733 $GPGGA,055129.00,5326.1729618,N,11109.6028200,W,4,12,0.9,300,M,46.9,M,,,
47:44.737 $GPVTG,0,T,034.4,M,0,N,0,K
47:44.839 $GPGGA,055129.00,5326.1729618,N,11109.6028200,W,4,12,0.9,300,M,46.9,M,,,
47:44.843 $GPVTG,0,T,034.4,M,0,N,0,K
47:44.950 $GPGGA,055129.00,5326.1729618,N,11109.6028200,W,4,12,0.9,300,M,46.9,M,,,
47:44.954 $GPVTG,0,T,034.4,M,0,N,0,K
47:45.056 $GPGGA,055129.00,5326.1729618,N,11109.6028200,W,4,12,0.9,300,M,46.9,M,,,
47:45.060 $GPVTG,0,T,034.4,M,0,N,0,K
47:45.167 $GPGGA,055129.00,5326.1729618,N,11109.6028200,W,4,12,0.9,300,M,46.9,M,,,
47:45.171 $GPVTG,0,T,034.4,M,0,N,0,K
47:45.273 $GPGGA,055129.00,5326.1729618,N,11109.6028200,W,4,12,0.9,300,M,46.9,M,,,
47:45.277 $GPVTG,0,T,034.4,M,0,N,0,K
47:45.384 $GPGGA,055129.00,5326.1729618,N,11109.6028200,W,4,12,0.9,300,M,46.9,M,,,
47:45.388 $GPVTG,0,T,034.4,M,0,N,0,K
47:45.491 $GPGGA,055129.00,5326.1729618,N,11109.6028200,W,4,12,0.9,300,M,46.9,M,,,
47:45.495 $GPVTG,0,T,034.4,M,0,N,0,K
47:45.597 $GPGGA,055129.00,5326.1729618,N,11109.6028200,W,4,12,0.9,300,M,46.9,M,,,
47:45.605 $GPVTG,0,T,034.4,M,0,N,0,K
47:45.707 $GPGGA,055129.00,5326.1729618,N,11109.6028200,W,4,12,0.9,300,M,46.9,M,,,
47:45.711 $GPVTG,0,T,034.4,M,0,N,0,K
47:45.814 $GPGGA,055129.00,5326.1729618,N,11109.6028200,W,4,12,0.9,300,M,46.9,M,,,
47:45.822 $GPVTG,0,T,034.4,M,0,N,0,K
47:45.925 $GPGGA,055129.00,5326.1729618,N,11109.6028200,W,4,12,0.9,300,M,46.9,M,,,
47:45.929 $GPVTG,0,T,034.4,M,0,N,0,K
47:46.031 $GPGGA,055129.00,5326.1729618,N,11109.6028200,W,4,12,0.9,300,M,46.9,M,,,
47:46.039 $GPVTG,0,T,034.4,M,0,N,0,K
47:46.142 $GPGGA,055129.00,5326.1729618,N,11109.6028200,W,4,12,0.9,300,M,46.9,M,,,
47:46.145 $GPVTG,0,T,034.4,M,0,N,0,K
47:46.248 $GPGGA,055129.00,5326.1729618,N,11109.6028200,W,4,12,0.9,300,M,46.9,M,,,
47:46.256 $GPVTG,0,T,034.4,M,0,N,0,K
47:46.359 $GPGGA,055129.00,5326.1729618,N,11109.6028200,W,4,12,0.9,300,M,46.9,M,,,
47:46.363 $GPVTG,0,T,034.4,M,0,N,0,K
47:46.465 $GPGGA,055129.00,5326.1729618,N,11109.6028200,W,4,12,0.9,300,M,46.9,M,,,
47:46.470 $GPVTG,0,T,034.4,M,0,N,0,K
47:46.576 $GPGGA,055129.00,5326.1729618,N,11109.6028200,W,4,12,0.9,300,M,46.9,M,,,
47:46.580 $GPVTG,0,T,034.4,M,0,N,0,K
47:46.682 $GPGGA,055129.00,5326.1729618,N,11109.6028200,W,4,12,0.9,300,M,46.9,M,,,
47:46.687 $GPVTG,0,T,034.4,M,0,N,0,K
47:46.793 $GPGGA,055129.00,5326.1729618,N,11109.6028200,W,4,12,0.9,300,M,46.9,M,,,
47:46.797 $GPVTG,0,T,034.4,M,0,N,0,K
47:46.899 $GPGGA,055129.00,5326.1729618,N,11109.6028200,W,4,12,0.9,300,M,46.9,M,,,
47:46.904 $GPVTG,0,T,034.4,M,0,N,0,K
47:47.006 $GPGGA,055129.00,5326.1729618,N,11109.6028200,W,4,12,0.9,300,M,46.9,M,,,
47:47.014 $GPVTG,0,T,034.4,M,0,N,0,K
47:47.117 $GPGGA,055129.00,5326.1729618,N,11109.6028200,W,4,12,0.9,300,M,46.9,M,,,
47:47.121 $GPVTG,0,T,034.4,M,0,N,0,K
47:47.223 $GPGGA,055129.00,5326.1729618,N,11109.6028200,W,4,12,0.9,300,M,46.9,M,,,
47:47.231 $GPVTG,0,T,034.4,M,0,N,0,K
47:47.334 $GPGGA,055129.00,5326.1729618,N,11109.6028200,W,4,12,0.9,300,M,46.9,M,,,
47:47.338 $GPVTG,0,T,034.4,M,0,N,0,K
47:47.439 $GPGGA,055129.00,5326.1729618,N,11109.6028200,W,4,12,0.9,300,M,46.9,M,,,
47:47.448 $GPVTG,0,T,034.4,M,0,N,0,K
47:47.550 $GPGGA,055129.00,5326.1729618,N,11109.6028200,W,4,12,0.9,300,M,46.9,M,,,
47:47.554 $GPVTG,0,T,034.4,M,0,N,0,K
47:47.657 $GPGGA,055129.00,5326.1729618,N,11109.6028200,W,4,12,0.9,300,M,46.9,M,,,
47:47.665 $GPVTG,0,T,034.4,M,0,N,0,K
47:47.768 $GPGGA,055129.00,5326.1729618,N,11109.6028200,W,4,12,0.9,300,M,46.9,M,,,
47:47.772 $GPVTG,0,T,034.4,M,0,N,0,K
47:47.874 $GPGGA,055129.00,5326.1729618,N,11109.6028200,W,4,12,0.9,300,M,46.9,M,,,
47:47.878 $GPVTG,0,T,034.4,M,0,N,0,K
47:47.985 $GPGGA,055129.00,5326.1729618,N,11109.6028200,W,4,12,0.9,300,M,46.9,M,,,
47:47.989 $GPVTG,0,T,034.4,M,0,N,0,K
47:48.091 $GPGGA,055129.00,5326.1729618,N,11109.6028200,W,4,12,0.9,300,M,46.9,M,,,
47:48.096 $GPVTG,0,T,034.4,M,0,N,0,K
47:48.202 $GPGGA,055129.00,5326.1729618,N,11109.6028200,W,4,12,0.9,300,M,46.9,M,,,
47:48.206 $GPVTG,0,T,034.4,M,0,N,0,K
47:48.308 $GPGGA,055129.00,5326.1729618,N,11109.6028200,W,4,12,0.9,300,M,46.9,M,,,
47:48.313 $GPVTG,0,T,034.4,M,0,N,0,K
47:48.415 $GPGGA,055129.00,5326.1729618,N,11109.6028200,W,4,12,0.9,300,M,46.9,M,,,
47:48.423 $GPVTG,0,T,034.4,M,0,N,0,K
47:48.525 $GPGGA,055129.00,5326.1729618,N,11109.6028200,W,4,12,0.9,300,M,46.9,M,,,
47:48.529 $GPVTG,0,T,034.4,M,0,N,0,K
47:48.632 $GPGGA,055129.00,5326.1729618,N,11109.6028200,W,4,12,0.9,300,M,46.9,M,,,
47:48.640 $GPVTG,0,T,034.4,M,0,N,0,K
47:48.742 $GPGGA,055129.00,5326.1729618,N,11109.6028200,W,4,12,0.9,300,M,46.9,M,,,
47:48.746 $GPVTG,0,T,034.4,M,0,N,0,K
47:48.849 $GPGGA,055129.00,5326.1729618,N,11109.6028200,W,4,12,0.9,300,M,46.9,M,,,
47:48.857 $GPVTG,0,T,034.4,M,0,N,0,K
47:48.960 $GPGGA,055129.00,5326.1729618,N,11109.6028200,W,4,12,0.9,300,M,46.9,M,,,
47:48.965 $GPVTG,0,T,034.4,M,0,N,0,K
47:49.066 $GPGGA,055129.00,5326.1729618,N,11109.6028200,W,4,12,0.9,300,M,46.9,M,,,
47:49.073 $GPVTG,0,T,034.4,M,0,N,0,K
47:49.177 $GPGGA,055129.00,5326.1729618,N,11109.6028200,W,4,12,0.9,300,M,46.9,M,,,
47:49.181 $GPVTG,0,T,034.4,M,0,N,0,K
47:49.283 $GPGGA,055129.00,5326.1729618,N,11109.6028200,W,4,12,0.9,300,M,46.9,M,,,
47:49.287 $GPVTG,0,T,034.4,M,0,N,0,K
47:49.393 $GPGGA,055129.00,5326.1729618,N,11109.6028200,W,4,12,0.9,300,M,46.9,M,,,
47:49.397 $GPVTG,0,T,034.4,M,0,N,0,K
47:49.501 $GPGGA,055129.00,5326.1729618,N,11109.6028200,W,4,12,0.9,300,M,46.9,M,,,
47:49.504 $GPVTG,0,T,034.4,M,0,N,0,K
47:49.611 $GPGGA,055129.00,5326.1729618,N,11109.6028200,W,4,12,0.9,300,M,46.9,M,,,
47:49.615 $GPVTG,0,T,034.4,M,0,N,0,K
47:49.718 $GPGGA,055129.00,5326.1729618,N,11109.6028200,W,4,12,0.9,300,M,46.9,M,,,
47:49.722 $GPVTG,0,T,034.4,M,0,N,0,K
47:49.828 $GPGGA,055129.00,5326.1729618,N,11109.6028200,W,4,12,0.9,300,M,46.9,M,,,
47:49.832 $GPVTG,0,T,034.4,M,0,N,0,K
47:49.934 $GPGGA,055129.00,5326.1729618,N,11109.6028200,W,4,12,0.9,300,M,46.9,M,,,
47:49.939 $GPVTG,0,T,034.4,M,0,N,0,K
47:50.041 $GPGGA,055129.00,5326.1729618,N,11109.6028200,W,4,12,0.9,300,M,46.9,M,,,
47:50.049 $GPVTG,0,T,034.4,M,0,N,0,K
47:50.152 $GPGGA,055129.00,5326.1729618,N,11109.6028200,W,4,12,0.9,300,M,46.9,M,,,
47:50.156 $GPVTG,0,T,034.4,M,0,N,0,K
47:50.258 $GPGGA,055129.00,5326.1729618,N,11109.6028200,W,4,12,0.9,300,M,46.9,M,,,
47:50.266 $GPVTG,0,T,034.4,M,0,N,0,K
47:50.369 $GPGGA,055129.00,5326.1729618,N,11109.6028200,W,4,12,0.9,300,M,46.9,M,,,
47:50.373 $GPVTG,0,T,034.4,M,0,N,0,K
47:50.475 $GPGGA,055129.00,5326.1729618,N,11109.6028200,W,4,12,0.9,300,M,46.9,M,,,
47:50.483 $GPVTG,0,T,034.4,M,0,N,0,K
47:50.586 $GPGGA,055129.00,5326.1729618,N,11109.6028200,W,4,12,0.9,300,M,46.9,M,,,
47:50.590 $GPVTG,0,T,034.4,M,0,N,0,K
47:50.692 $GPGGA,055129.00,5326.1729618,N,11109.6028200,W,4,12,0.9,300,M,46.9,M,,,
47:50.700 $GPVTG,0,T,034.4,M,0,N,0,K
47:50.803 $GPGGA,055129.00,5326.1729618,N,11109.6028200,W,4,12,0.9,300,M,46.9,M,,,
47:50.807 $GPVTG,0,T,034.4,M,0,N,0,K
47:50.909 $GPGGA,055129.00,5326.1729618,N,11109.6028200,W,4,12,0.9,300,M,46.9,M,,,
47:50.914 $GPVTG,0,T,034.4,M,0,N,0,K
47:51.019 $GPGGA,055129.00,5326.1729618,N,11109.6028200,W,4,12,0.9,300,M,46.9,M,,,
47:51.024 $GPVTG,0,T,034.4,M,0,N,0,K
47:51.127 $GPGGA,055129.00,5326.1729618,N,11109.6028200,W,4,12,0.9,300,M,46.9,M,,,
47:51.130 $GPVTG,0,T,034.4,M,0,N,0,K
47:51.237 $GPGGA,055129.00,5326.1729618,N,11109.6028200,W,4,12,0.9,300,M,46.9,M,,,
47:51.241 $GPVTG,0,T,034.4,M,0,N,0,K
47:51.344 $GPGGA,055129.00,5326.1729618,N,11109.6028200,W,4,12,0.9,300,M,46.9,M,,,
47:51.347 $GPVTG,0,T,034.4,M,0,N,0,K
47:51.450 $GPGGA,055129.00,5326.1729618,N,11109.6028200,W,4,12,0.9,300,M,46.9,M,,,
47:51.458 $GPVTG,0,T,034.4,M,0,N,0,K
47:51.560 $GPGGA,055129.00,5326.1729618,N,11109.6028200,W,4,12,0.9,300,M,46.9,M,,,
47:51.564 $GPVTG,0,T,034.4,M,0,N,0,K
47:51.667 $GPGGA,055129.00,5326.1729618,N,11109.6028200,W,4,12,0.9,300,M,46.9,M,,,
47:51.675 $GPVTG,0,T,034.4,M,0,N,0,K
47:51.778 $GPGGA,055129.00,5326.1729618,N,11109.6028200,W,4,12,0.9,300,M,46.9,M,,,
47:51.782 $GPVTG,0,T,034.4,M,0,N,0,K
47:51.884 $GPGGA,055129.00,5326.1729618,N,11109.6028200,W,4,12,0.9,300,M,46.9,M,,,
47:51.892 $GPVTG,0,T,034.4,M,0,N,0,K
47:51.995 $GPGGA,055129.00,5326.1729618,N,11109.6028200,W,4,12,0.9,300,M,46.9,M,,,
47:51.999 $GPVTG,0,T,034.4,M,0,N,0,K
47:52.101 $GPGGA,055129.00,5326.1729618,N,11109.6028200,W,4,12,0.9,300,M,46.9,M,,,
47:52.108 $GPVTG,0,T,034.4,M,0,N,0,K
47:52.212 $GPGGA,055129.00,5326.1729618,N,11109.6028200,W,4,12,0.9,300,M,46.9,M,,,
47:52.216 $GPVTG,0,T,034.4,M,0,N,0,K
47:52.318 $GPGGA,055129.00,5326.1729618,N,11109.6028200,W,4,12,0.9,300,M,46.9,M,,,
47:52.321 $GPVTG,0,T,034.4,M,0,N,0,K
47:52.429 $GPGGA,055129.00,5326.1729618,N,11109.6028200,W,4,12,0.9,300,M,46.9,M,,,
47:52.433 $GPVTG,0,T,034.4,M,0,N,0,K
47:52.535 $GPGGA,055129.00,5326.1729618,N,11109.6028200,W,4,12,0.9,300,M,46.9,M,,,
47:52.539 $GPVTG,0,T,034.4,M,0,N,0,K
47:52.646 $GPGGA,055129.00,5326.1729618,N,11109.6028200,W,4,12,0.9,300,M,46.9,M,,,
47:52.649 $GPVTG,0,T,034.4,M,0,N,0,K
47:52.752 $GPGGA,055129.00,5326.1729618,N,11109.6028200,W,4,12,0.9,300,M,46.9,M,,,
47:52.756 $GPVTG,0,T,034.4,M,0,N,0,K
47:52.859 $GPGGA,055129.00,5326.1729618,N,11109.6028200,W,4,12,0.9,300,M,46.9,M,,,
47:52.867 $GPVTG,0,T,034.4,M,0,N,0,K
47:52.970 $GPGGA,055129.00,5326.1729618,N,11109.6028200,W,4,12,0.9,300,M,46.9,M,,,
47:52.973 $GPVTG,0,T,034.4,M,0,N,0,K
47:53.076 $GPGGA,055129.00,5326.1729618,N,11109.6028200,W,4,12,0.9,300,M,46.9,M,,,
47:53.084 $GPVTG,0,T,034.4,M,0,N,0,K
47:53.187 $GPGGA,055129.00,5326.1729618,N,11109.6028200,W,4,12,0.9,300,M,46.9,M,,,
47:53.191 $GPVTG,0,T,034.4,M,0,N,0,K
47:53.293 $GPGGA,055129.00,5326.1729618,N,11109.6028200,W,4,12,0.9,300,M,46.9,M,,,
47:53.301 $GPVTG,0,T,034.4,M,0,N,0,K
47:53.404 $GPGGA,055129.00,5326.1729618,N,11109.6028200,W,4,12,0.9,300,M,46.9,M,,,
47:53.408 $GPVTG,0,T,034.4,M,0,N,0,K
47:53.509 $GPGGA,055129.00,5326.1729618,N,11109.6028200,W,4,12,0.9,300,M,46.9,M,,,
47:53.518 $GPVTG,0,T,034.4,M,0,N,0,K
47:53.621 $GPGGA,055129.00,5326.1729618,N,11109.6028200,W,4,12,0.9,300,M,46.9,M,,,
47:53.625 $GPVTG,0,T,034.4,M,0,N,0,K
47:53.727 $GPGGA,055129.00,5326.1729618,N,11109.6028200,W,4,12,0.9,300,M,46.9,M,,,
47:53.731 $GPVTG,0,T,034.4,M,0,N,0,K
47:53.838 $GPGGA,055129.00,5326.1729618,N,11109.6028200,W,4,12,0.9,300,M,46.9,M,,,
47:53.842 $GPVTG,0,T,034.4,M,0,N,0,K
47:53.944 $GPGGA,055129.00,5326.1729618,N,11109.6028200,W,4,12,0.9,300,M,46.9,M,,,
47:53.948 $GPVTG,0,T,034.4,M,0,N,0,K
47:54.055 $GPGGA,055129.00,5326.1729618,N,11109.6028200,W,4,12,0.9,300,M,46.9,M,,,
47:54.059 $GPVTG,0,T,034.4,M,0,N,0,K
47:54.161 $GPGGA,055129.00,5326.1729618,N,11109.6028200,W,4,12,0.9,300,M,46.9,M,,,
47:54.166 $GPVTG,0,T,034.4,M,0,N,0,K
47:54.272 $GPGGA,055129.00,5326.1729618,N,11109.6028200,W,4,12,0.9,300,M,46.9,M,,,
47:54.276 $GPVTG,0,T,034.4,M,0,N,0,K
47:54.379 $GPGGA,055129.00,5326.1729618,N,11109.6028200,W,4,12,0.9,300,M,46.9,M,,,
47:54.383 $GPVTG,0,T,034.4,M,0,N,0,K
47:54.485 $GPGGA,055129.00,5326.1729618,N,11109.6028200,W,4,12,0.9,300,M,46.9,M,,,
47:54.493 $GPVTG,0,T,034.4,M,0,N,0,K
47:54.595 $GPGGA,055129.00,5326.1729618,N,11109.6028200,W,4,12,0.9,300,M,46.9,M,,,
47:54.600 $GPVTG,0,T,034.4,M,0,N,0,K
